continent,country,state,city,lat,long,place_ID
North America,United States,Massachusetts,Boston,42.3554334,-71.060511,1
Europe,United Kingdom,,Cambridge,52.19758465,0.1391537373687439,2
North America,United States,Tennessee,Chattanooga,35.0457219,-85.3094883,3
North America,United States,Wisconsin,Milwaukee,43.0349931,-87.922497,4
North America,United States,South Carolina,Greenville,34.851354,-82.3984882,5
North America,United States,New Hampshire,Hanover,37.744783,-77.4464165,6
North America,United States,South Carolina,Columbia,34.0007493,-81.0343313,7
North America,United States,Arizona,Yuma,32.665135,-114.47603157249804,8
North America,United States,Missouri,Saint Louis,38.6319657,-90.2428756,9
North America,United States,Florida,Palm Coast,29.5541432,-81.2207673,10
North America,United States,,Boston,42.3554334,-71.060511,11
North America,United States,Pennsylvania,Scranton,41.4086874,-75.6621294,12
North America,United States,Michigan,Detroit,42.3315509,-83.0466403,13
North America,United States,Minnesota,Saint Paul,44.9497487,-93.0931028,14
North America,Canada,,Remote,49.6577563,-122.5422111,15
Europe,United Kingdom,,Lincoln,53.2336301,-0.5392172,16
North America,United States,Illinois,Chicago,41.8755616,-87.6244212,17
North America,United States,California,Pomona,34.0553813,-117.7517496,18
North America,United States,Georgia,Atlanta,33.7489924,-84.3902644,19
North America,United States,Florida,Boca Raton,26.3586885,-80.0830984,20
North America,United States,Pennsylvania,Philadelphia,39.9527237,-75.1635262,21
North America,United States,,Atlanta,33.7489924,-84.3902644,22
North America,Canada,,Toronto,43.6534817,-79.3839347,23
North America,United States,Ohio,Dayton,39.7589478,-84.1916069,24
North America,United States,Florida,Bradenton,27.4989278,-82.5748194,25
North America,United States,Michigan,Ann Arbor,42.2681569,-83.7312291,26
North America,United States,District of Columbia,Washington,38.8950368,-77.0365427,27
North America,United States,Maryland,Silver Spring,38.9997621,-77.02403709829767,28
North America,United States,Texas,San Antonio,29.4246002,-98.4951405,29
North America,United States,Minnesota,Minneapolis,44.9772995,-93.2654692,30
North America,United States,Virginia,Richmond,37.5385087,-77.43428,31
North America,United States,North Carolina,Research Triangle,35.875259,-78.7751271,32
North America,United States,Michigan,Kalamazoo,42.291707,-85.5872286,33
North America,United States,New York,Manhattan,40.7896239,-73.9598939,34
North America,United States,California,Sacramento,38.5810606,-121.493895,35
North America,United States,Texas,Dallas,32.7762719,-96.7968559,36
North America,United States,Georgia,Waynesboro,38.0686668,-78.8893999,37
Europe,United Kingdom,,Liverpool,53.4071991,-2.99168,38
North America,United States,Pennsylvania,Pittsburgh,40.4416941,-79.9900861,39
North America,United States,Virginia,Arlington,32.7355816,-97.1071186,40
North America,United States,North Carolina,Chapel Hill,35.9131542,-79.05578,41
North America,Canada,,Vancouver,49.2608724,-123.113952,42
North America,United States,California,Berkeley,37.8753497,-122.23963364918777,43
North America,United States,Minnesota,Apple Valley,44.7319094,-93.21772,44
North America,United States,Michigan,Troy,42.7284117,-73.6917878,45
North America,United States,New Jersey,Linden,33.0123537,-94.3654707,46
Europe,United Kingdom,,Bristol,51.4538022,-2.5972985,47
North America,United States,Illinois,Champaign,40.1164841,-88.2430932,48
North America,Canada,,,,,49
North America,Canada,,Ottawa,45.4208777,-75.6901106,50
North America,United States,Texas,Bryan,30.6743643,-96.3699632,51
North America,United States,Rhode Island,Providence,41.8239891,-71.4128343,52
North America,United States,District of Columbia,Columbia,34.0007493,-81.0343313,53
North America,United States,Illinois,Bloomington,39.1670396,-86.5342881,54
North America,United States,Colorado,Denver,39.7392364,-104.984862,55
North America,United States,New York,New York,40.7127281,-74.0060152,56
North America,United States,,Colorado Springs,38.8339578,-104.825348,57
Europe,United Kingdom,,Southampton,50.9025349,-1.404189,58
North America,United States,,,,,59
North America,United States,,Remote,43.0059455,-123.8925908,60
North America,United States,North Carolina,Raleigh,35.7803977,-78.6390989,61
Europe,United Kingdom,,Edinburgh,55.9533456,-3.1883749,62
North America,Canada,,Kitchener,43.451291,-80.4927815,63
North America,United States,Oregon,Portland,45.5202471,-122.674194,64
North America,United States,Tennessee,Nashville,36.1622767,-86.7742984,65
Europe,United Kingdom,,Newcastle,54.9738474,-1.6131572,66
North America,United States,Washington,Seattle,47.6038321,-122.330062,67
North America,United States,Indiana,Indianapolis,39.7683331,-86.1583502,68
North America,United States,Maryland,Baltimore,39.2908816,-76.610759,69
North America,United States,Ohio,Solon,41.8072344,-91.4940604,70
North America,Canada,,Montréal,45.5031824,-73.5698065,71
North America,United States,Florida,Gainesville,29.6519684,-82.3249846,72
North America,United States,North Carolina,Troy,42.7284117,-73.6917878,73
North America,United States,Indiana,Lafayette,30.2043259,-92.0298813,74
North America,United States,Arizona,Phoenix,33.4484367,-112.074141,75
North America,United States,Colorado,Boulder,40.0149856,-105.270545,76
North America,United States,Texas,Austin,30.2711286,-97.7436995,77
North America,Canada,,Halifax,44.648618,-63.5859487,78
North America,United States,New Hampshire,Portsmouth,43.0702223,-70.7548621,79
Europe,United Kingdom,,Nottingham,52.9534193,-1.1496461,80
Europe,United Kingdom,,Glasgow,55.8609825,-4.2488787,81
Europe,Netherlands,,Den Haag,52.0799838,4.3113461,82
North America,Canada,,Calgary,51.0460954,-114.065465,83
North America,United States,Missouri,Kansas City,39.100105,-94.5781416,84
North America,United States,Iowa,Dubuque,42.5006243,-90.6647985,85
North America,Canada,,London,42.9832406,-81.243372,86
Europe,United Kingdom,,Cardiff,51.4816546,-3.1791934,87
North America,United States,California,San Diego,32.7174202,-117.1627728,88
North America,United States,Massachusetts,Belmont,40.0057737,-81.0097516,89
North America,United States,Massachusetts,Cambridge,42.3750997,-71.1056157,90
North America,United States,,Philadelphia,39.9527237,-75.1635262,91
North America,United States,,Indianapolis,39.7683331,-86.1583502,92
North America,United States,New Jersey,Hanover Township,42.13316685,-84.53691295686377,93
North America,United States,Wisconsin,Jefferson,29.834772,-94.1704496,94
North America,United States,Virginia,Manassas,38.7509488,-77.4752667,95
Oceania,Australia,,Perth,-31.9558964,115.8605801,96
North America,United States,Pennsylvania,Newtown Township,39.99316880000001,-75.40688099908917,97
North America,United States,Tennessee,Memphis,35.1335022,-89.9668758,98
North America,United States,Michigan,Grand Rapids,42.9632405,-85.6678639,99
Europe,United Kingdom,,London,51.5073219,-0.1276474,100
Europe,Spain,,,,,101
North America,United States,,New York,40.7127281,-74.0060152,102
North America,United States,Nebraska,Omaha,41.2587459,-95.9383758,103
North America,United States,Georgia,Gainesville,29.6519684,-82.3249846,104
Europe,United Kingdom,,Oxford,51.7520131,-1.2578499,105
North America,United States,Virginia,McLean,40.4631789,-88.8196613,106
North America,United States,Oklahoma,Ardmore,34.1742611,-97.1436254,107
North America,United States,Ohio,Columbus,39.9622601,-83.0007065,108
North America,United States,Ohio,Shaker Heights,41.4739419,-81.5370671,109
North America,United States,South Carolina,Charleston,32.7876012,-79.9402728,110
Europe,Finland,,Helsinki,60.1674881,24.9427473,111
North America,United States,Wisconsin,Madison,43.074761,-89.3837613,112
North America,United States,Indiana,Mishawaka,41.6611642,-86.1807031,113
North America,United States,Oklahoma,Tulsa,36.13334,-95.9224992,114
North America,United States,Florida,Tampa,27.9477595,-82.458444,115
North America,United States,,Washington,38.8950368,-77.0365427,116
North America,United States,New Jersey,Lambertville,40.3659394,-74.9429448,117
North America,United States,New York,Chatham,35.7151316,-79.2533035,118
North America,United States,Illinois,Skokie,42.0333694,-87.7333972,119
North America,United States,Georgia,Alpharetta,34.0709576,-84.2747329,120
North America,United States,Florida,Hillsborough County,27.9184543,-82.3488057,121
North America,United States,Florida,Altamonte Springs,28.6619154,-81.3885899,122
Europe,United Kingdom,,Brighton,50.83891575,-0.1269305425007466,123
North America,United States,California,San Francisco,37.7790262,-122.419906,124
North America,United States,,Portland,45.5202471,-122.674194,125
North America,United States,Texas,El Paso,31.7865623,-106.441207,126
Europe,France,,Lyon,45.7578137,4.8320114,127
North America,United States,California,Merced,37.1641544,-120.7678602,128
Europe,United Kingdom,,Aberdeen,57.1482429,-2.0928095,129
North America,United States,,Birmingham,33.5206824,-86.8024326,130
North America,United States,Maine,Portland,45.5202471,-122.674194,131
North America,United States,New York,Westchester,41.1763139,-73.7907554,132
North America,United States,California,San Jose,37.3361663,-121.890591,133
North America,United States,Michigan,Grandville,42.909598,-85.7630956,134
North America,United States,Texas,Houston,29.7589382,-95.3676974,135
North America,United States,Wisconsin,Eau Claire,44.811349,-91.4984941,136
North America,United States,New York,Buffalo,42.8867166,-78.8783922,137
North America,United States,Indiana,West Lafayette,40.4258686,-86.9080655,138
North America,United States,Massachusetts,Braintree,42.2064195,-71.005067,139
North America,United States,Indiana,Clinton,38.5896187,-89.420064,140
North America,United States,Massachusetts,Woburn,42.4792618,-71.1522766,141
North America,United States,California,Anaheim,33.8347516,-117.911732,142
North America,United States,Florida,Orlando,28.5421109,-81.3790304,143
North America,United States,Wisconsin,Appleton,44.2613967,-88.4069744,144
North America,United States,Minnesota,Bloomington,39.1670396,-86.5342881,145
North America,United States,Florida,Jacksonville,30.3321838,-81.655651,146
North America,United States,North Carolina,Durham,35.996653,-78.9018053,147
North America,United States,Connecticut,Stamford,41.0534302,-73.5387341,148
North America,Canada,,Town of West Bloomfield,,,149
North America,United States,Oregon,Newport,41.4899827,-71.3137707,150
North America,United States,California,Los Angeles,34.0536909,-118.242766,151
North America,United States,New Jersey,New Brunswick,40.4862174,-74.4518173,152
North America,United States,Washington,Spokane,47.6571934,-117.42351,153
North America,United States,South Dakota,Rapid City,44.0869329,-103.2274481,154
North America,United States,Illinois,Mount Prospect,42.0664167,-87.9372908,155
Europe,Germany,,Düsseldorf,51.2254018,6.7763137,156
North America,United States,North Carolina,Charlotte,35.2272086,-80.8430827,157
North America,United States,Arizona,Flagstaff,35.1987522,-111.6518229,158
North America,United States,Illinois,Carlinville,39.2797699,-89.8817662,159
North America,United States,Minnesota,Chaska,44.7894072,-93.6021791,160
North America,United States,,Omaha,41.2587459,-95.9383758,161
North America,United States,Massachusetts,Springfield,39.7990175,-89.6439575,162
North America,United States,Illinois,Joliet,41.5263603,-88.0840212,163
North America,United States,California,El Dorado County,38.7574137,-120.5276129,164
North America,United States,Florida,Plant City,28.01633,-82.1234803,165
North America,United States,New York,City of New York,40.7127281,-74.0060152,166
North America,United States,Illinois,Lisle,41.801159,-88.0747687,167
North America,United States,Massachusetts,Salem,44.9391565,-123.033121,168
North America,United States,Wisconsin,Platteville,40.2149829,-104.8227494,169
Europe,United Kingdom,,Remote,55.87549705,-2.952510542015051,170
North America,United States,Maryland,Suitland,38.8501338,-76.9256744274507,171
North America,United States,Maryland,Rockville,39.0817985,-77.1516844,172
North America,Canada,,Winnipeg,49.8955367,-97.1384584,173
Europe,Ireland,,Dublin,53.3497645,-6.2602732,174
North America,United States,Virginia,Charlottesville,38.029306,-78.4766781,175
North America,United States,Idaho,Idaho Falls,43.4887907,-112.03628,176
North America,United States,New York,City of Rochester,43.157285,-77.615214,177
North America,United States,Massachusetts,Parañaque,14.4840579,121.0220326,178
North America,United States,Minnesota,Duluth,46.7729322,-92.1251218,179
North America,United States,Massachusetts,South Hadley,42.2495463,-72.582258,180
North America,United States,Massachusetts,North Andover,42.6839894,-71.1127065,181
North America,United States,Washington,Bellevue,47.6144219,-122.192337,182
North America,United States,Georgia,Suwanee,34.0514898,-84.0712997,183
North America,United States,Connecticut,Fairfield,39.7886111,-82.6418883,184
North America,United States,,Orlando,28.5421109,-81.3790304,185
North America,United States,Connecticut,Manchester,42.9956397,-71.4547891,186
North America,United States,Texas,Grapevine,32.9337381,-97.0788754,187
North America,United States,North Carolina,Wilmington,39.7459468,-75.546589,188
North America,United States,New Jersey,Cherry Hill,39.9348351,-75.0307264,189
North America,United States,Ohio,Cleveland,41.4996562,-81.6936813,190
North America,United States,New Jersey,East Hanover,40.8200998,-74.3648731,191
North America,United States,Louisiana,New Orleans,29.9759983,-90.0782127,192
North America,United States,California,Citrus Heights,38.7071247,-121.2810611,193
North America,United States,Missouri,Jefferson City,38.577359,-92.1724265,194
North America,United States,Florida,Naples,26.1421976,-81.7942944,195
North America,United States,,San Diego,32.7174202,-117.1627728,196
North America,United States,Florida,Melbourne,28.106471,-80.6371513,197
North America,United States,Ohio,Medina,29.2836281,-99.1126826,198
North America,United States,Montana,Montana,47.3752671,-109.638757,199
North America,United States,Kentucky,Lexington,38.0464066,-84.4970393,200
North America,United States,Wisconsin,La Crosse,43.8122836,-91.2514355,201
North America,United States,Missouri,Springfield,39.7990175,-89.6439575,202
North America,United States,Ohio,Canton,32.555664,-95.8640507,203
North America,United States,Texas,Richardson,32.9481789,-96.7297206,204
North America,United States,California,Glendale,34.1469416,-118.2478471,205
North America,United States,Colorado,Golden,39.7546349,-105.22058,206
North America,United States,Iowa,Des Moines,41.5910323,-93.6046655,207
North America,Canada,,St. John's,47.5614705,-52.7126162,208
North America,United States,Maryland,College Park,38.99203005,-76.94610290199051,209
North America,United States,California,Redding,40.5863563,-122.391675,210
North America,United States,Illinois,Springfield,39.7990175,-89.6439575,211
Asia,India,,Pune,18.521428,73.8544541,212
North America,United States,Virginia,Harrisonburg,38.4493315,-78.8688833,213
North America,United States,New Jersey,Somerset,39.9980022,-79.0415528,214
North America,Canada,,Victoria,48.4283182,-123.3649533,215
North America,United States,Illinois,Normal,40.5092961,-88.9843937,216
North America,Canada,,Ontario,50.000678,-86.000977,217
North America,United States,Florida,Okaloosa County,30.6765961,-86.6037748,218
North America,United States,North Dakota,Grand Forks,47.9078244,-97.0592028,219
North America,United States,,Pittsburgh,40.4416941,-79.9900861,220
North America,United States,Michigan,Bloomfield Hills,42.583645,-83.2454883,221
North America,United States,Virginia,Pembroke,43.14709,-71.457825,222
Europe,United Kingdom,,Billingham,54.6072779,-1.2910885,223
North America,United States,Washington,Redmond,47.6694141,-122.1238767,224
North America,United States,,Sunnyvale,37.3688301,-122.036349,225
North America,United States,Virginia,Annandale,45.2627428,-94.1244271,226
North America,United States,Oregon,Prineville,44.2998261,-120.834972,227
North America,United States,Kansas,Overland Park,38.9742502,-94.6851702,228
North America,United States,California,Oakland,37.8044557,-122.2713563,229
North America,United States,Vermont,Rutland,43.6063341,-72.9802745,230
North America,United States,Iowa,Ames,42.0267567,-93.6170448,231
North America,Canada,,Guelph,43.5460516,-80.2493276,232
North America,United States,,Ann Arbor,42.2681569,-83.7312291,233
North America,United States,Maine,Rockland,41.1519319,-74.0357266,234
North America,United States,New Jersey,Concord,43.207178,-71.537476,235
North America,United States,Indiana,South Bend,41.6833813,-86.2500066,236
North America,United States,Arkansas,Siloam Springs,36.1881365,-94.5404962,237
North America,United States,California,Irvine,33.6856969,-117.8259819,238
North America,United States,New Jersey,Princeton,40.3492744,-74.6592958,239
North America,United States,Ohio,Cincinnati,39.1014537,-84.5124602,240
North America,United States,Alabama,Montgomery,32.3669656,-86.3006485,241
North America,United States,Virginia,Leesburg,28.810823,-81.8778582,242
Europe,Ireland,,Athlone,53.4228434,-7.9425897,243
North America,United States,California,Carpinteria,34.3988838,-119.5184564,244
North America,Canada,,Waterloo,43.4652699,-80.5222961,245
North America,United States,New York,Albany,42.6511674,-73.754968,246
North America,United States,California,Ridgecrest,35.6225064,-117.6699414,247
North America,United States,Washington,Everett,47.9673056,-122.201399,248
North America,United States,Georgia,Denver,39.7392364,-104.984862,249
North America,United States,Florida,Miami,25.7741728,-80.19362,250
North America,United States,,City of New York,40.7127281,-74.0060152,251
North America,United States,Pennsylvania,East Stroudsburg,40.9995386,-75.1812913,252
North America,United States,Idaho,Twin Falls,42.5704456,-114.4602554,253
North America,United States,New York,Rochester,43.157285,-77.615214,254
North America,United States,Wisconsin,Lake Mills,43.4193665,-93.5336177,255
North America,United States,California,Ripon,37.741595,-121.124382,256
North America,United States,Tennessee,Nashville-Davidson,36.1622767,-86.7742984,257
North America,United States,Michigan,Lansing,42.7337712,-84.5553805,258
North America,Canada,,Cornwall,45.0184417,-74.728703,259
North America,United States,Nevada,Las Vegas,36.1672559,-115.148516,260
North America,Canada,,Saskatoon,52.131802,-106.660767,261
North America,United States,Illinois,Oak Park,41.8878145,-87.7887615,262
North America,United States,Michigan,Ironwood,46.4555673,-90.1684371,263
North America,United States,Virginia,Fairfax,38.8462236,-77.3063733,264
North America,United States,Alabama,Huntsville,34.729847,-86.5859011,265
North America,United States,Pennsylvania,West Whiteland Township,40.02425075,-75.62432877075015,266
North America,United States,Arkansas,Fort Smith,35.3784666,-94.3996456,267
North America,United States,Illinois,Lake Forest,42.2586342,-87.840625,268
North America,United States,Delaware,Wilmington,39.7459468,-75.546589,269
North America,United States,Montana,Bozeman,45.6794293,-111.044047,270
North America,United States,,Albany,42.6511674,-73.754968,271
South America,Argentina,,Buenos Aires,-34.6075682,-58.4370894,272
North America,United States,,Walnut Creek,37.9020731,-122.0618702,273
Europe,United Kingdom,,Leeds,53.7974185,-1.5437941,274
North America,United States,Maryland,Bethesda,38.98127255,-77.12335871396549,275
North America,United States,Florida,Tallahassee,30.4380832,-84.2809332,276
North America,United States,New York,East Hampton,40.9633868,-72.1847598,277
North America,United States,Pennsylvania,Camp Hill,40.2398118,-76.9199742,278
North America,United States,Vermont,Springfield,39.7990175,-89.6439575,279
Europe,Netherlands,,Utrecht,52.080985600000005,5.12768396945229,280
North America,United States,Kansas,Lawrence,38.9719384,-95.2359496,281
North America,United States,Washington,Bothell,47.7598697,-122.2068288,282
North America,Canada,,Chilliwack,49.157677,-121.95143,283
North America,United States,New Jersey,Newark,40.735657,-74.1723667,284
North America,United States,Pennsylvania,Bethlehem,40.6178915,-75.3786521,285
North America,United States,Illinois,Lake Zurich,42.1969689,-88.0934108,286
North America,United States,New Jersey,Flemington,40.5130953,-74.8591333,287
North America,Canada,,Estevan,49.1428076,-102.9910752,288
North America,United States,Oklahoma,Noble County,39.7517148,-81.4957347,289
North America,United States,Connecticut,East Hartford,41.7823216,-72.6120346,290
North America,United States,Wisconsin,Middleton,43.0962919,-89.5119565,291
North America,United States,Minnesota,Maple Grove,45.0984983,-93.4419222,292
North America,United States,Maryland,Alexandria,38.8051095,-77.0470229,293
North America,United States,Maryland,Aberdeen,46.975371,-123.815722,294
Europe,United Kingdom,,Belfast,54.596391,-5.9301829,295
North America,United States,Virginia,Portsmouth,43.0702223,-70.7548621,296
North America,United States,Kentucky,Louisville,38.2542376,-85.759407,297
North America,United States,,Phoenix,33.4484367,-112.074141,298
North America,United States,California,Newport,41.4899827,-71.3137707,299
North America,United States,Texas,Eagle Pass,28.7099337,-100.493813,300
North America,United States,New Mexico,Kirtland,41.628937,-81.361499,301
North America,United States,Washington,Bellingham,48.7544012,-122.478836,302
North America,United States,Connecticut,New Haven,41.3082138,-72.9250518,303
North America,United States,,Sacramento,38.5810606,-121.493895,304
North America,United States,Massachusetts,Lowell,42.6334247,-71.3161718,305
North America,United States,Michigan,Niles,42.0289319,-87.8122348,306
North America,United States,Arizona,Glendale,34.1469416,-118.2478471,307
Europe,United Kingdom,,Wells County,54.3240933,-5.6772929,308
North America,United States,Hawaii,Honolulu,21.304547,-157.855676,309
North America,United States,Michigan,Dearborn,42.3222599,-83.1763145,310
Europe,Denmark,,Copenhagen,55.6867243,12.5700724,311
North America,United States,Maine,Augusta,33.4709714,-81.9748429,312
North America,United States,New York,Schenectady,42.8142432,-73.9395687,313
North America,United States,Utah,Salt Lake,40.6632297,-111.9103124,314
North America,United States,New Mexico,Las Cruces,32.3140354,-106.7798078,315
North America,United States,Arkansas,Fayetteville,36.0625843,-94.1574328,316
North America,United States,New Jersey,Trenton,40.2205944,-74.7597219,317
North America,United States,Virginia,Alexandria,38.8051095,-77.0470229,318
North America,United States,Maryland,Gaithersburg,39.1399187,-77.1929215,319
North America,United States,Maryland,Annapolis,38.9786401,-76.492786,320
North America,United States,Colorado,Broomfield,39.9403995,-105.05208,321
North America,United States,New Jersey,Mount Laurel,39.934002,-74.8909988,322
North America,United States,Massachusetts,Newton,30.8118989,-93.740504,323
North America,United States,Pennsylvania,New Castle,40.9999202,-80.3471856,324
North America,United States,Kansas,Topeka,39.049011,-95.677556,325
North America,United States,New York,Brooklyn,40.6526006,-73.9497211,326
North America,United States,Massachusetts,Somerville,42.3875968,-71.0994968,327
North America,United States,,San Francisco,37.7790262,-122.419906,328
North America,United States,Michigan,Auburn Hills,42.6875323,-83.2341028,329
North America,Canada,,Edmonton,53.5462055,-113.491241,330
North America,United States,Illinois,Moline,41.5058344,-90.5136642,331
North America,United States,South Carolina,Spartanburg,34.9498007,-81.9320157,332
Europe,Netherlands,,Amsterdam,52.3727598,4.8936041,333
North America,United States,Alabama,Athens,33.9597677,-83.376398,334
North America,United States,Minnesota,New Ulm,44.3140261,-94.4614177,335
North America,United States,Texas,Waco,31.549333,-97.1466695,336
North America,United States,Idaho,Boise,43.6166163,-116.200886,337
North America,United States,Virginia,Falls Church,38.882334,-77.1710914,338
North America,United States,California,Truckee,39.327962,-120.1832533,339
North America,United States,Texas,Plano,33.0136764,-96.6925096,340
North America,United States,Massachusetts,Bedford,40.0271453,-78.5237447,341
North America,United States,Michigan,Rochester Hills,42.6583661,-83.1499322,342
North America,United States,Nevada,Reno,39.5261206,-119.8126581,343
North America,United States,Pennsylvania,Erie,42.1294712,-80.0852695,344
North America,United States,Delaware,Dover,39.158168,-75.5243682,345
North America,United States,Indiana,Fort Wayne,41.0799898,-85.1386015,346
North America,United States,Virginia,Bristol,41.7425538,-71.0856545,347
North America,United States,,Charlotte,35.2272086,-80.8430827,348
North America,United States,Kentucky,Franklin,33.2002659,-95.2231752,349
North America,United States,,Jersey City,40.7215682,-74.047455,350
North America,United States,Texas,Terrell,30.1990738,-102.0974881,351
Europe,Spain,,Barcelona,41.3828939,2.1774322,352
North America,United States,Utah,Lehi,40.3881114,-111.8486019,353
North America,Canada,,Surrey,49.1913033,-122.849143,354
North America,United States,North Carolina,Greensboro,36.0726355,-79.7919754,355
North America,United States,Minnesota,Northfield,44.4582041,-93.161159,356
North America,United States,Connecticut,Hartford,41.764582,-72.6908547,357
North America,United States,Idaho,Pocatello,42.8620287,-112.450627,358
North America,United States,California,City Of Kwinana,,,359
North America,United States,Maryland,Columbia,34.0007493,-81.0343313,360
North America,United States,North Carolina,Winston-Salem,36.0998131,-80.2440518,361
Europe,United Kingdom,,Chester,53.1908873,-2.8908955,362
North America,United States,Colorado,Fort Collins,40.5508527,-105.0668085,363
North America,United States,Florida,Merritt Island,28.2662775,-80.66369844594115,364
North America,United States,New Jersey,Metro,45.46931025,-122.61749928906988,365
North America,United States,Oregon,Medford,42.4184296,-71.1061639,366
North America,United States,Virginia,Norfolk,36.8968052,-76.2602336,367
North America,United States,Missouri,Rolla,37.9509324,-91.7708076,368
North America,Canada,,Mississauga,43.5896231,-79.6443879,369
North America,United States,California,Mountain View,37.3893889,-122.0832101,370
North America,United States,New York,Syracuse,43.0481221,-76.1474244,371
North America,United States,Michigan,Southfield,42.4733689,-83.2218731,372
North America,United States,Rhode Island,Westerly,41.3775996,-71.8272911,373
North America,United States,California,Orange,33.7500378,-117.8704931,374
North America,United States,Nebraska,Lincoln,40.8088861,-96.7077751,375
North America,United States,South Dakota,Sioux Falls,43.5488256,-96.7307737,376
Europe,Ireland,,Уфа,,,377
North America,United States,,Boulder,40.0149856,-105.270545,378
North America,United States,Kansas,Wichita,37.6922361,-97.3375448,379
North America,United States,Tennessee,Decherd,35.2098048,-86.0794285,380
North America,United States,California,San Rafael,37.9735346,-122.5310874,381
North America,United States,Wisconsin,Franklin,33.2002659,-95.2231752,382
Europe,United Kingdom,,Croydon,51.3713049,-0.101957,383
North America,United States,California,Sunnyvale,37.3688301,-122.036349,384
North America,United States,South Carolina,Chester,39.9829308,-75.7652424,385
Europe,United Kingdom,,Reading,51.456659,-0.9696512,386
North America,United States,,Seattle,47.6038321,-122.330062,387
North America,United States,,Minneapolis,44.9772995,-93.2654692,388
North America,United States,New York,Plattsburgh,44.69282,-73.45562,389
North America,United States,Oregon,Tigard,45.4307473,-122.771933,390
North America,United States,Massachusetts,Medford,42.4184296,-71.1061639,391
North America,United States,Colorado,Center,31.7952814,-94.1803576,392
North America,United States,South Carolina,Beaufort,35.469331,-76.8927522,393
North America,United States,Pennsylvania,Allentown,40.6022059,-75.4712794,394
North America,United States,New Mexico,Albuquerque,35.0841034,-106.650985,395
North America,Canada,,Prince George,53.9128645,-122.7453699,396
North America,United States,New Hampshire,Manchester,42.9956397,-71.4547891,397
North America,United States,Maryland,Greenbelt,39.004607,-76.8756838,398
North America,United States,Virginia,Roanoke,37.270973,-79.9414313,399
Europe,Switzerland,,Zürich,47.3744489,8.5410422,400
North America,United States,New York,Poughkeepsie,41.7065539,-73.9283672,401
North America,United States,New Hampshire,Plymouth,42.7369124,-96.2213607,402
North America,United States,Illinois,Evanston,42.0447388,-87.6930459,403
North America,Canada,,Tiszaújváros,,,404
North America,United States,Tennessee,Knoxville,35.9603948,-83.9210261,405
North America,United States,,Columbia,34.0007493,-81.0343313,406
North America,United States,Illinois,Northfield,44.4582041,-93.161159,407
North America,United States,North Carolina,Cary,35.7882893,-78.7812081,408
North America,United States,Colorado,Colorado Springs,38.8339578,-104.825348,409
North America,United States,Michigan,None,39.0052577,-94.4326947,410
North America,United States,Florida,Delray Beach,26.4614625,-80.0728201,411
North America,United States,Tennessee,La Vergne,36.0156178,-86.5819394,412
North America,United States,Kansas,Howe,44.9367168,-93.2159479,413
Europe,United Kingdom,,Manchester,53.4794892,-2.2451148,414
North America,United States,Virginia,Washington,38.8950368,-77.0365427,415
North America,United States,Vermont,Burlington,44.4761601,-73.212906,416
North America,United States,Florida,Pensacola,30.421309,-87.2169149,417
North America,United States,Virginia,Herndon,39.909726,-100.785153,418
North America,United States,Massachusetts,Brookline,42.3317642,-71.1211635,419
North America,Bermuda,,Hamilton,32.2956076,-64.7827048,420
North America,United States,Texas,Frisco,33.1506744,-96.8236116,421
Europe,United Kingdom,,Leicester,52.6361398,-1.1330789,422
North America,United States,,Amblar,,,423
Europe,France,,Paris,48.8588897,2.3200410217200766,424
North America,United States,Illinois,East Moline,41.5152157,-90.4420411,425
North America,United States,Utah,Utah County,40.177058,-111.69107185434032,426
North America,United States,Florida,Titusville,28.6122187,-80.8075538,427
North America,United States,Virginia,Bridgewater,41.9903787,-70.9750426,428
North America,United States,Pennsylvania,Conshohocken,40.0792766,-75.3015714,429
North America,United States,Pennsylvania,Rural,38.7784035,-84.0893758,430
North America,United States,Massachusetts,Torrington,41.8006523,-73.1212214,431
North America,United States,Missouri,Columbia,34.0007493,-81.0343313,432
North America,United States,Nevada,Carson City,39.1698022,-119.7575628,433
North America,United States,Maryland,Salisbury,35.6709727,-80.4742261,434
North America,United States,Virginia,Crystal City,28.6834097,-99.8274585,435
North America,United States,Minnesota,Saint Louis Park,44.9475726,-93.3569023,436
North America,United States,New Mexico,Santa Fe,35.6876096,-105.9384569,437
North America,United States,Massachusetts,Burlington,44.4761601,-73.212906,438
North America,United States,Virginia,Marion,32.7931661,-94.344488,439
Europe,United Kingdom,,Luton,51.8784385,-0.4152837,440
North America,United States,Virginia,Orange,33.7500378,-117.8704931,441
North America,United States,,Los Angeles,34.0536909,-118.242766,442
North America,United States,Massachusetts,Amherst,42.3685658,-72.505714,443
North America,United States,Washington,Vancouver,45.6306954,-122.6744557,444
North America,United States,Ohio,Córdoba,26.0902329,-81.69983,445
North America,United States,Washington,Woodinville,47.7545827,-122.1588902,446
Europe,Germany,,Göttingen,51.5328328,9.9351811,447
North America,United States,California,Pasadena,34.1476452,-118.1444779,448
North America,United States,Illinois,Calumet City,41.616016,-87.5295837,449
North America,United States,New York,Troy,42.7284117,-73.6917878,450
Europe,United Kingdom,,Hinckley,52.5410591,-1.3729379,451
North America,United States,Indiana,Fortville,39.9322625,-85.8480354,452
North America,United States,Illinois,Peoria,40.6938609,-89.5891008,453
North America,United States,Kansas,Lyndon,38.2567376,-85.6016275,454
North America,United States,Massachusetts,Worcester,42.2625621,-71.8018877,455
North America,United States,Pennsylvania,Pocono Township,41.05325975,-75.30046269284304,456
Asia,Malaysia,,Kuala Lumpur,3.1516964,101.6942371,457
North America,United States,Massachusetts,Lexington,38.0464066,-84.4970393,458
North America,United States,Pennsylvania,Tredyffrin Township,40.0689709,-75.46235478363613,459
North America,United States,Texas,Paris,33.6617962,-95.555513,460
North America,United States,Massachusetts,Wilmington,39.7459468,-75.546589,461
Europe,Germany,,,,,462
North America,United States,Connecticut,Mystic,40.7776709,-92.9453445,463
North America,United States,Florida,North Port,27.044224,-82.2359254,464
Europe,Germany,,Berlin,52.5170365,13.3888599,465
North America,United States,North Carolina,Wake Forest,35.9803138,-78.5103731,466
North America,United States,Massachusetts,Kingston,41.9287812,-74.0023702,467
North America,United States,Massachusetts,Lawrence,38.9719384,-95.2359496,468
Oceania,Australia,,Melbourne,-37.8142176,144.9631608,469
Europe,United Kingdom,,,,,470
North America,United States,,Chicago,41.8755616,-87.6244212,471
Europe,United Kingdom,,Birmingham,52.4796992,-1.9026911,472
North America,United States,Florida,Sarasota,27.3365805,-82.5308545,473
North America,United States,Illinois,Islampur,,,474
North America,United States,California,Bay,30.2481693,-85.6593633,475
North America,Mexico,,Mexico City,19.4326296,-99.1331785,476
North America,United States,,João Pessoa,,,477
North America,United States,Georgia,Quezon City,35.130645,-118.016966,478
North America,United States,New Jersey,Morristown,40.7970382,-74.4809868,479
North America,United States,California,千代田区,,,480
North America,United States,Oregon,Beaverton,45.4871723,-122.80378,481
North America,United States,South Dakota,Elkton,39.6065073,-75.8330934,482
North America,United States,Texas,Alvarado,32.4095565,-97.21028810404624,483
North America,United States,New Jersey,Hillsborough County,27.9184543,-82.3488057,484
North America,United States,Pennsylvania,Lancaster,40.03813,-76.3056686,485
North America,United States,Illinois,Mascoutah,38.490327,-89.793154,486
Europe,France,,Orléans,47.9027336,1.9086066,487
North America,United States,Massachusetts,Georgetown,30.6326942,-97.6772311,488
North America,United States,Louisiana,Lafayette,30.2043259,-92.0298813,489
North America,United States,New Hampshire,Stratham,43.0244129,-70.9122808,490
Africa,South Africa,,Johannesburg,-26.205,28.049722,491
North America,United States,,Metro,45.46931025,-122.61749928906988,492
North America,United States,Ohio,Hilliard,40.033814,-83.1596108,493
North America,United States,,Virginia Beach,36.8529841,-75.9774183,494
North America,United States,Michigan,Portage,41.1496775,-81.2082,495
Europe,Belgium,,Leuven,50.879202,4.7011675,496
North America,United States,Minnesota,Rochester,43.157285,-77.615214,497
North America,United States,Montana,Billings,45.7874957,-108.49607,498
North America,United States,Arizona,Chandler,33.3061605,-111.84125,499
North America,United States,New Hampshire,Concord,43.207178,-71.537476,500
North America,Canada,,Charlottetown,46.234953,-63.132935,501
North America,United States,Vermont,Woodstock,42.0410578,-74.1182492,502
Europe,United Kingdom,,Slough,51.5111014,-0.5940682,503
North America,United States,California,Larkspur,37.9340915,-122.5352539,504
North America,Canada,,Hamilton,43.2560802,-79.8728583,505
North America,United States,Kentucky,Bowling Green,36.9903199,-86.4436018,506
North America,United States,Wisconsin,Muskego,42.905848,-88.1389779,507
North America,United States,Texas,Amarillo,35.2072185,-101.833824,508
North America,United States,Rhode Island,Narragansett,41.4501021,-71.4495005,509
North America,United States,California,Fresno,36.7394421,-119.7848307,510
North America,United States,Maryland,Washington,38.8950368,-77.0365427,511
North America,United States,Kansas,Kansas City,39.100105,-94.5781416,512
North America,United States,North Carolina,Norcross,33.9412127,-84.2135309,513
North America,United States,Michigan,East Lansing,42.7320307,-84.4721678,514
North America,Canada,,Steinbach,49.530557,-96.69342,515
North America,United States,Arizona,Apache Junction,33.4150485,-111.549577,516
North America,Canada,,Kelowna,49.8879177,-119.495902,517
Africa,South Africa,,Cape Town,-33.928992,18.417396,518
North America,United States,New York,White Plains,41.0339862,-73.7629097,519
North America,Canada,,Brockville,44.5895925,-75.6843332,520
North America,United States,California,Monterey,36.2231079,-121.3877428,521
North America,United States,Colorado,San Jorge,18.4501958,-66.0618311,522
North America,United States,Pennsylvania,Easton,40.6916081,-75.2099866,523
North America,United States,Washington,Richland,38.7060457,-88.0949352,524
Europe,United Kingdom,,Milton Keynes,52.0406502,-0.7594092,525
Europe,United Kingdom,,Caterham,51.2819693,-0.0771032,526
North America,United States,Michigan,Barryton,43.752525,-85.146979,527
North America,United States,Kentucky,Paducah,37.0833893,-88.6000478,528
North America,United States,Minnesota,Chanhassen,44.8618403,-93.5307207,529
North America,United States,California,La Mirada,33.9060971,-118.0107092,530
North America,Canada,,Sault Ste. Marie,46.52391,-84.320068,531
North America,United States,Virginia,Fredericksburg,38.3031837,-77.4605399,532
Europe,United Kingdom,,Hull,53.7435722,-0.3394758,533
North America,United States,Kentucky,Mitchell,32.2898049,-100.9213003,534
North America,United States,New Jersey,New Forest,30.3133,-94.248459,535
North America,United States,California,Riverside,33.9533546,-117.3961623,536
North America,United States,Connecticut,Windsor Locks,41.9281305,-72.643631,537
North America,United States,Maryland,Frederick,39.2127031,-78.279166,538
North America,United States,Massachusetts,Hopkinton,42.344072,-91.2482814,539
North America,United States,Georgia,Dalton,46.173849,-95.915609,540
North America,United States,Washington,Tacoma,47.2495798,-122.439874,541
North America,United States,,Quezon City,35.130645,-118.016966,542
North America,United States,Montana,Missoula,46.8701049,-113.995267,543
North America,United States,,Town of Clifton Park,42.8631868,-73.7812103,544
North America,United States,New York,Canton,32.555664,-95.8640507,545
North America,United States,Louisiana,Baton Rouge,30.4507936,-91.1391153,546
North America,United States,Washington,Bremerton,47.5653663,-122.6246836,547
North America,United States,New Hampshire,Durham,35.996653,-78.9018053,548
North America,United States,,Memphis,35.1335022,-89.9668758,549
North America,United States,,Cambridge,42.3750997,-71.1056157,550
North America,United States,Michigan,Ypsilanti,42.2410562,-83.613055,551
North America,United States,California,Santa Clara,37.2333253,-121.6846349,552
North America,United States,California,Santa Rosa,38.4404925,-122.7141049,553
Europe,Belgium,,Braine,50.6107057,4.1360702,554
North America,United States,,Houston,29.7589382,-95.3676974,555
North America,United States,Pennsylvania,Wilkes-Barre,41.2464824,-75.8817316,556
North America,United States,Iowa,West Des Moines,41.5644476,-93.7594059,557
North America,United States,Ohio,Maumee,41.5628294,-83.6538244,558
North America,United States,Maine,Brunswick,34.0718195,-78.1914215,559
North America,United States,New York,Long Island,40.85149705,-73.0994258107431,560
North America,United States,Louisiana,Metairie,29.9899926,-90.1505426,561
North America,United States,Massachusetts,Framingham,42.3095704,-71.4413097,562
North America,Canada,,Campbell River,50.023071,-125.2441538,563
North America,United States,,Florida,27.7567667,-81.4639835,564
North America,United States,Vermont,Montpelier,44.2602164,-72.575114,565
North America,United States,Pennsylvania,Whitpain Township,40.1577071,-75.27600672504953,566
North America,Canada,,York Region,44.0007518,-79.4372217,567
North America,United States,North Carolina,Garner,43.102147,-93.6020069,568
North America,United States,Kansas,Oklahoma City,35.4729886,-97.5170536,569
North America,United States,New York,Ithaca,42.437072,-76.54831458600927,570
North America,United States,Massachusetts,Canton,32.555664,-95.8640507,571
North America,United States,California,Boron,35.01992715,-117.66791822379916,572
North America,United States,Arizona,Tucson,32.2228765,-110.9748477,573
North America,United States,Pennsylvania,West Pikeland Township,40.08845545,-75.62286997950004,574
North America,United States,Wisconsin,City of New York,40.7127281,-74.0060152,575
North America,United States,Iowa,Iowa City,41.6612561,-91.5299106,576
North America,United States,Florida,Санкт-Петербург,47.5786765,-94.7163297957807,577
North America,United States,Georgia,Savannah,32.0564572,-81.0951271,578
North America,United States,Arizona,Maricopa County,33.34883,-112.49123,579
North America,United States,Michigan,Warren,41.8119602,-79.2654452,580
Europe,Germany,,Nürnberg,49.453872,11.077298,581
North America,United States,,Temperance,41.76476,-83.57222792957555,582
North America,United States,California,Palm Springs,33.77217945,-116.49529769683984,583
Europe,Sweden,,Ystad,55.4329849,13.8196555,584
North America,United States,Oregon,Salem,44.9391565,-123.033121,585
Europe,Switzerland,,Geneva,46.2017559,6.1466014,586
North America,United States,Massachusetts,Fall River,41.7010642,-71.1546367,587
Asia,Hong Kong,,香港島 Hong Kong Island,22.2850394,114.1583819,588
North America,United States,Maryland,Maryland,39.5162401,-76.9382069,589
North America,United States,Vermont,Small Town,43.4913945,-88.8717659962287,590
North America,Canada,,Salamanca,45.9458493,-66.6353291,591
North America,United States,Massachusetts,Barnstable,41.6718684,-70.3499234,592
North America,Canada,,Vernon,50.2668671,-119.2718157,593
North America,Canada,,Niagara Falls,43.1065603,-79.0639039,594
North America,United States,Oklahoma,Norman,35.2225717,-97.4394816,595
North America,Canada,,Regina,50.44876,-104.61731,596
North America,United States,Wisconsin,Whitewater,37.9647365,-97.1475347,597
North America,United States,Ohio,Dublin,37.7021521,-121.9357918,598
North America,United States,Delaware,Newark,40.735657,-74.1723667,599
North America,United States,Virginia,Vienna,38.9013729,-77.2651762,600
North America,United States,Pennsylvania,Amblar,,,601
North America,United States,Mississippi,Jackson,32.3086744,-90.1983063,602
Europe,Germany,,Köln,50.938361,6.959974,603
North America,United States,Arkansas,Jonesboro,35.8272257,-90.6949871,604
Asia,Kuwait,,,,,605
North America,United States,New Hampshire,Nashua,42.7656251,-71.4677032,606
North America,United States,Pennsylvania,Hershey,40.2854881,-76.6506001,607
North America,United States,New Jersey,Cranbury,40.3099385,-74.51772241230152,608
Europe,Norway,,Oslo,59.9133301,10.7389701,609
North America,United States,California,Aliso Viejo,33.5761376,-117.7258122,610
North America,United States,Virginia,Williamsburg,37.2708788,-76.7074042,611
North America,United States,Washington,Shoreline,47.7564667,-122.3437497,612
North America,United States,Pennsylvania,Horsham,40.1842455,-75.13905239078957,613
North America,United States,Georgia,Valdosta,30.8327022,-83.2784851,614
North America,United States,New Jersey,Montvale,41.0467635,-74.0229173,615
Asia,Sri Lanka,,Colombo,6.9387469,79.8541134,616
North America,United States,,Detroit,42.3315509,-83.0466403,617
Europe,United Kingdom,,Washington,54.898614,-1.528827,618
North America,United States,New York,Southampton,36.6959378,-77.1586002,619
North America,United States,Michigan,Rochester,43.157285,-77.615214,620
North America,United States,,Madison,43.074761,-89.3837613,621
North America,United States,Virginia,Staunton,38.1495947,-79.072557,622
North America,United States,Florida,Daytona Beach,29.2108147,-81.0228331,623
North America,United States,Colorado,Englewood,39.6482059,-104.9879641,624
North America,United States,Virginia,Härjedalens kommun,,,625
North America,United States,,Charlotte Amalie,18.341137,-64.932789,626
North America,United States,Minnesota,Belfast,44.4261194,-69.0067359,627
North America,United States,,Redwood City,37.4863239,-122.232523,628
North America,United States,Maine,City of New York,40.7127281,-74.0060152,629
North America,United States,Kentucky,Ashland,40.7887367,-82.2360391,630
North America,United States,Oregon,Eugene,44.0505054,-123.0950506,631
North America,United States,North Carolina,Lexington,38.0464066,-84.4970393,632
North America,United States,Texas,Irving,32.8295183,-96.9442177,633
North America,United States,New York,Jamestown,37.2104434,-76.7738928,634
North America,United States,Kentucky,Frankfort,38.2009055,-84.8732836,635
North America,United States,Iowa,Maquoketa,42.0690915,-90.6654748,636
North America,United States,Michigan,Quezon City,35.130645,-118.016966,637
North America,United States,Vermont,White River,43.8198998,-72.6045818,638
North America,United States,Connecticut,Norwalk,41.1175966,-73.4078968,639
North America,United States,Massachusetts,Orange,33.7500378,-117.8704931,640
North America,United States,Pennsylvania,Doylestown,40.3100446,-75.1304588,641
Europe,United Kingdom,,Sheffield,53.3806626,-1.4702278,642
North America,United States,Virginia,Aldie,38.9755174,-77.6413094,643
Europe,Ireland,,Cork,51.897077,-8.4654674,644
Europe,United Kingdom,,Bath,51.3813864,-2.3596963,645
North America,United States,Minnesota,Minnetonka,44.9405086,-93.4638936,646
North America,United States,Massachusetts,Waltham,42.3756401,-71.2358004,647
North America,United States,Virginia,Chantilly,38.8788355,-77.40221718011088,648
North America,United States,Virginia,Virginia,37.1232245,-78.4927721,649
North America,United States,Kentucky,Cincinnati,39.1014537,-84.5124602,650
North America,United States,Massachusetts,Andover,45.2332985,-93.2913405,651
North America,United States,New Jersey,Atlantic City,39.3642852,-74.4229351,652
North America,United States,New Hampshire,Comas,32.7409242,-99.2897639,653
North America,United States,Colorado,Aurora,41.7571701,-88.3147539,654
North America,United States,California,Redwood City,37.4863239,-122.232523,655
North America,United States,Pennsylvania,Abington,40.1206656,-75.1179512,656
North America,United States,California,South San Francisco,37.6535403,-122.4168664,657
North America,Canada,,Waskesiu Lake,53.9221422,-106.0836102,658
North America,United States,New York,City of Glens Falls,43.309941,-73.644447,659
North America,United States,Idaho,Sandpoint,48.2765903,-116.553247,660
North America,United States,New York,Islip,40.7300685,-73.2107266,661
North America,United States,West Virginia,Morgantown,39.6296809,-79.9559437,662
North America,United States,California,Torrance,33.8358492,-118.3406288,663
North America,United States,California,Oceanside,33.1958696,-117.3794834,664
North America,United States,Ohio,Akron,41.083064,-81.518485,665
Europe,Germany,,Munich,48.1371079,11.5753822,666
North America,United States,Washington,Ridgefield,41.2814842,-73.4981792,667
,,,Mashpee,,,668
North America,United States,Maryland,Largo,27.9094665,-82.7873244,669
Europe,Belgium,,Gent,51.0538286,3.7250121,670
North America,United States,Idaho,Moscow,46.7323875,-117.0001651,671
North America,United States,Wisconsin,Menomonee Falls,43.1790768,-88.1170784,672
North America,United States,Rhode Island,Johnston,35.5285816,-78.3768021,673
Europe,Netherlands,,The Hague,52.0799838,4.3113461,674
North America,United States,California,Fullerton,33.8708215,-117.9294165,675
North America,United States,New York,Hudson,40.7381635,-74.0550731,676
North America,United States,Mississippi,Starkville,33.4503998,-88.8183872,677
North America,United States,North Carolina,Asheville,35.6009498,-82.5540161,678
Europe,Germany,,Aachen,50.776351,6.083862,679
North America,United States,New York,New YOrk,40.7127281,-74.0060152,680
North America,United States,Maryland,Olney,33.3711244,-98.7566946,681
North America,United States,District of Columbia,Arlington,32.7355816,-97.1071186,682
North America,United States,,Cleveland,41.4996562,-81.6936813,683
North America,United States,California,Rural,38.7784035,-84.0893758,684
North America,United States,Texas,Tyler,32.3512601,-95.3010624,685
North America,United States,Pennsylvania,New Kensington,40.5697893,-79.7647705,686
North America,United States,Indiana,Terre Haute,39.4667025,-87.4139119,687
North America,United States,Ohio,Toledo,41.6529143,-83.5378173,688
North America,United States,Illinois,Roselle,41.9849897,-88.0797182,689
Oceania,Australia,,Sydney,-33.8698439,151.2082848,690
North America,United States,New Jersey,Basking Ridge,40.7064088,-74.5492725,691
North America,United States,North Carolina,Hickory,37.959055,-93.3334746,692
North America,United States,Delaware,New Castle,40.9999202,-80.3471856,693
North America,United States,Missouri,Cape Girardeau,37.3034933,-89.5230357,694
North America,United States,Indiana,Morristown,40.7970382,-74.4809868,695
North America,United States,Michigan,Canton,32.555664,-95.8640507,696
North America,United States,Michigan,Allegan County,42.5867203,-85.8861492,697
North America,United States,Oklahoma,Oklahoma City,35.4729886,-97.5170536,698
North America,United States,West Virginia,Romney,39.3419698,-78.7564522,699
Europe,United Kingdom,,Swindon,51.5613683,-1.7856853,700
Europe,United Kingdom,,Gloucester,51.8653705,-2.2458192,701
Europe,Greece,,Θεσσαλονίκη,40.6403167,22.9352716,702
North America,Canada,,Oakville,43.447436,-79.666672,703
North America,United States,Massachusetts,Acton,34.48074149999999,-118.1868378638664,704
North America,United States,Alabama,Eufaula,31.8912717,-85.1454876,705
North America,United States,Virginia,Waynesboro,38.0686668,-78.8893999,706
North America,United States,Florida,Fort Lauderdale,26.1223084,-80.1433786,707
North America,United States,Mississippi,Amory,33.9869898,-88.4856105,708
Asia,Japan,,,,,709
North America,United States,Iowa,Cedar Rapids,41.9758872,-91.6704053,710
North America,United States,Washington,Olympia,47.0451022,-122.8950075,711
Europe,United Kingdom,,Peterlee,54.7618912,-1.3321519,712
North America,United States,Massachusetts,Wakefield,42.506484,-71.0728306,713
North America,United States,Illinois,Schaumburg,42.0333608,-88.083406,714
North America,United States,California,Modesto,37.6390972,-120.9968782,715
North America,United States,Arizona,Scottsdale,33.4942189,-111.9260184,716
North America,United States,California,Oxnard,34.1976308,-119.1803818,717
Europe,Germany,,Remote,49.21868845,7.110967349999999,718
North America,United States,Florida,Bonita Springs,26.339806,-81.7786972,719
Europe,United Kingdom,,Bradford,53.7944229,-1.7519186,720
North America,United States,Maryland,Baltimore County,39.4445243,-76.6483482,721
North America,United States,Oklahoma,Altus,34.6381255,-99.3339754,722
North America,United States,Colorado,Louisville,38.2542376,-85.759407,723
North America,United States,Michigan,Holland,42.7876022,-86.1090828,724
North America,United States,Colorado,Durango,37.2395367,-107.82158179169292,725
North America,United States,Iowa,Waterloo,42.498275,-92.3328743,726
North America,United States,Mississippi,Pascagoula,30.3646795,-88.5585995,727
North America,United States,Michigan,Farmington Hills,42.4853125,-83.3771553,728
North America,United States,California,Costa Mesa,33.6633386,-117.903317,729
North America,United States,New Jersey,Parsippany,40.8578772,-74.4259866,730
North America,United States,Arkansas,Bentonville,36.3728538,-94.2088172,731
North America,United States,Illinois,Quincy,42.2509914,-71.0037374,732
North America,United States,Illinois,Manila,35.8800733,-90.1670393,733
North America,United States,Kansas,Holton,39.4652865,-95.7366657,734
North America,United States,New York,Brewster County,29.8462742,-103.2400734,735
Europe,Austria,,Vienna,48.2083537,16.3725042,736
North America,United States,California,Placer County,39.1012064,-120.7650606,737
North America,Canada,,Saint-Thomas,46.0138485,-73.3508635,738
North America,United States,Utah,South Jordan,40.5584882,-111.9367107,739
North America,United States,California,San Juan,18.465299,-66.116666,740
North America,United States,Maine,Kennebunk,43.384092,-70.545273,741
North America,United States,Washington,Shelton,41.3164856,-73.0931641,742
North America,United States,Pennsylvania,York,39.9067499,-76.7008946,743
South America,Brazil,,RIo de Janeiro,-22.9110137,-43.2093727,744
North America,United States,Oklahoma,Miami,25.7741728,-80.19362,745
North America,United States,Maryland,White Oak,32.5271582,-94.8609684,746
North America,United States,Virginia,Onley,37.6908513,-75.7161703,747
North America,United States,Mississippi,Corinth,34.9343599,-88.5223353,748
North America,United States,Wisconsin,Little Chute,44.2799872,-88.3184394,749
North America,United States,Florida,Miami Beach,25.7929198,-80.1353006,750
North America,United States,Texas,Longview,32.5007031,-94.74049,751
North America,United States,Utah,Taylorsville,40.6676347,-111.9388027,752
North America,United States,Georgia,Athens,33.9597677,-83.376398,753
North America,United States,Arkansas,Little Rock,34.7465071,-92.2896267,754
North America,United States,New York,Town/Village of Harrison,40.9689871,-73.71263,755
North America,United States,Oregon,Corvallis,44.5645659,-123.2620435,756
North America,Canada,,Thunder Bay,49.809661,-88.4811791,757
North America,United States,,Midwest City,35.4495097,-97.3967025,758
North America,United States,Kentucky,Elizabethtown,37.693952,-85.8591285,759
North America,United States,Oregon,Ashland,40.7887367,-82.2360391,760
North America,Canada,,Huntsville,45.3263919,-79.218434,761
North America,United States,New York,Waterford,41.358659,-72.1519367,762
North America,United States,North Dakota,Bismarck,46.808327,-100.783739,763
North America,United States,Wisconsin,Watertown,42.3709299,-71.1828321,764
North America,United States,Oregon,Ashington,29.560665,-98.433018,765
North America,United States,Pennsylvania,Lansdale,40.2414952,-75.2837862,766
North America,United States,New Jersey,Edison,40.538457,-74.39450186737218,767
North America,United States,New Jersey,Jersey City,40.7215682,-74.047455,768
North America,United States,California,Thousand Oaks,34.1705609,-118.8375937,769
North America,United States,Colorado,Lakewood,39.7085736,-105.0846694,770
North America,United States,New Mexico,Los Alamos,35.893533500000004,-106.28970107056452,771
Europe,Sweden,,Remote,,,772
North America,United States,Pennsylvania,Wayne,38.4251958,-88.4197678,773
North America,United States,Oregon,Hillsboro,45.5228939,-122.989827,774
North America,United States,Illinois,Ильский,,,775
Europe,United Kingdom,,Royal Tunbridge Wells,51.1371483,0.2673446,776
North America,United States,Minnesota,Galt,42.6935804,-93.6053548,777
North America,United States,North Carolina,Small Town,43.4913945,-88.8717659962287,778
North America,United States,Illinois,Alton,38.8908583,-90.1843091,779
North America,United States,California,San Bernardino County,34.8253019,-116.0833144,780
North America,United States,Texas,Dripping Springs,30.1902067,-98.0866781,781
North America,United States,Mississippi,Vicksburg,32.3528055,-90.8777342,782
North America,United States,Alabama,Birmingham,33.5206824,-86.8024326,783
Europe,United Kingdom,,Ripon,54.1362169,-1.5238006,784
North America,United States,Alaska,Anchorage,61.2163129,-149.894852,785
North America,United States,Indiana,Bloomington,39.1670396,-86.5342881,786
North America,United States,Virginia,Tysons,38.916509000000005,-77.2257977704366,787
North America,United States,Michigan,Saginaw,43.4200387,-83.9490365,788
North America,United States,Pennsylvania,Williamsburg,37.2708788,-76.7074042,789
North America,United States,Arizona,Kent,33.1665316,-100.7846477,790
North America,United States,Massachusetts,Peabody,42.5278731,-70.9286609,791
North America,United States,Michigan,Northville,42.4310806,-83.4832262,792
North America,United States,Washington,Olympic Peninsula,47.6036231,-123.67975169533592,793
North America,United States,Massachusetts,Northampton,40.7451356,-75.3289302,794
North America,United States,Florida,West Palm Beach,26.715364,-80.0532942,795
North America,United States,North Carolina,Fayetteville,36.0625843,-94.1574328,796
Europe,Sweden,,Göteborg,57.7072326,11.9670171,797
North America,United States,Georgia,Reidsville,36.3548586,-79.6644748,798
North America,United States,West Virginia,Charleston,32.7876012,-79.9402728,799
North America,United States,Illinois,Rockford,42.2713945,-89.093966,800
North America,United States,Illinois,Downers Grove,41.7936822,-88.0102281,801
North America,United States,New Jersey,Fairfield,39.7886111,-82.6418883,802
North America,United States,Pennsylvania,Harrisburg,40.2663107,-76.8861122,803
North America,United States,Pennsylvania,Collegeville,40.1856597,-75.451571,804
North America,United States,Minnesota,Mankato,44.1634663,-93.9993505,805
North America,United States,Arizona,Prescott,34.5399962,-112.468761,806
North America,Canada,,Welland,42.9922181,-79.2484192,807
North America,United States,Connecticut,Stratford,36.3361403,-102.072119,808
Europe,Sweden,,Stockholm,59.3251172,18.0710935,809
North America,United States,Massachusetts,Marlborough,42.3459271,-71.5522874,810
North America,United States,California,Santa Cruz,37.050096,-121.9905908,811
North America,United States,Florida,Toowoomba,,,812
North America,United States,Florida,Napoli,26.1421976,-81.7942944,813
North America,United States,New York,Middletown,41.5623178,-72.6509061,814
North America,United States,Virginia,Reston,38.955696,-77.34188283719988,815
,,,Washington,,,816
Europe,France,,,,,817
North America,United States,New Jersey,Weehawken,40.7695457,-74.0204177,818
North America,United States,,Cheyenne,41.139981,-104.820246,819
North America,United States,Illinois,Niles,42.0289319,-87.8122348,820
North America,United States,California,Concord,43.207178,-71.537476,821
North America,United States,Rhode Island,Warwick,41.7002024,-71.4161108,822
North America,United States,California,Walnut Creek,37.9020731,-122.0618702,823
North America,United States,Massachusetts,Concord,43.207178,-71.537476,824
North America,United States,Texas,Fort Worth,32.753177,-97.3327459,825
North America,United States,Ohio,East Liverpool,40.6186756,-80.5772928,826
North America,United States,South Carolina,Florence,34.79981,-87.677251,827
Europe,United Kingdom,,Exeter,50.7255794,-3.5269497,828
North America,United States,New York,London,37.1289771,-84.0832646,829
North America,United States,Virginia,Stafford,38.0350094,-98.718816,830
North America,United States,District of Columbia,Baltimore,39.2908816,-76.610759,831
North America,United States,Maryland,Arnold,38.4226711,-90.3758287,832
North America,United States,Kansas,Sabetha,39.9032342,-95.8002347,833
North America,United States,California,San Ramon,37.7648021,-121.9544387,834
North America,United States,California,San Carlos,37.504936,-122.261823,835
North America,United States,New York,New City,41.1469917,-73.9902998,836
North America,United States,New Jersey,Somers Point,39.3176158,-74.594601,837
Europe,Germany,,Frankfurt am Main,50.1106444,8.6820917,838
North America,United States,Arizona,Tempe,33.4255056,-111.9400091,839
North America,United States,Massachusetts,Milford,41.2222218,-73.0570603,840
North America,United States,Pennsylvania,Butler County,40.9162435,-79.92623988102099,841
North America,United States,New Jersey,Egg Harbor Township,39.3820672,-74.6171489,842
North America,United States,Virginia,Henrico County,37.5131191,-77.3465081,843
North America,United States,Kansas,Olathe,38.8838856,-94.81887,844
North America,United States,Massachusetts,Natick,42.2836393,-71.346996,845
North America,United States,New Jersey,Collingswood,39.9181686,-75.071284,846
North America,United States,Virginia,Columbia,34.0007493,-81.0343313,847
North America,Canada,,Burlington,43.3248924,-79.7966835,848
North America,United States,Minnesota,Plymouth,42.7369124,-96.2213607,849
North America,United States,Michigan,Flint,43.0161693,-83.6900211,850
North America,United States,Nebraska,Kearney,40.4906216,-98.9472344,851
North America,United States,Iowa,Coralville,41.6759977,-91.580705,852
North America,United States,Maine,Bethel,60.7922222,-161.7558333,853
North America,United States,Utah,Riverdale,41.6333678,-87.6331021,854
North America,United States,Utah,Orem,40.2981599,-111.6944313,855
North America,United States,Wisconsin,Somerset,39.9980022,-79.0415528,856
North America,United States,Michigan,Grand Haven,43.0630734,-86.2283864,857
North America,United States,California,Watsonville,36.9092773,-121.7529071,858
North America,United States,Illinois,North Chicago,42.325578,-87.8411818,859
North America,United States,Vermont,Greenfield,42.6097476,-72.5979752,860
North America,United States,South Carolina,Rayne Township,40.707613,-79.09103816316794,861
North America,United States,Michigan,Waterford,41.358659,-72.1519367,862
Europe,United Kingdom,,João Pessoa,,,863
North America,United States,Florida,Sanford,35.4798757,-79.1802994,864
Europe,Hungary,,Budapest,47.4979937,19.0403594,865
Europe,Luxembourg,,,,,866
North America,United States,Massachusetts,Falmouth,38.6767366,-84.3304592,867
North America,United States,Wisconsin,Kenosha,42.5846773,-87.8212263,868
North America,United States,Virginia,Virginia Beach,36.8529841,-75.9774183,869
North America,United States,Washington,Puyallup,47.1849009,-122.29214,870
North America,United States,Pennsylvania,State College,40.7944504,-77.8616386,871
North America,United States,New Jersey,Mountainside,40.6723242,-74.3573722,872
North America,United States,Michigan,Traverse City,44.7606441,-85.6165301,873
North America,United States,Texas,Beaumont,30.0860459,-94.1018461,874
North America,United States,Texas,Lewisville,33.046233,-96.994174,875
North America,United States,Maine,Waterville,44.5520105,-69.6317121,876
North America,United States,Virginia,Newport News,36.9775016,-76.42977,877
North America,United States,Massachusetts,Beverly,42.5584284,-70.8800491,878
North America,United States,North Carolina,Cullowhee,35.3137739,-83.1765814,879
North America,United States,New Jersey,Iselin,40.569335,-74.31511249016258,880
Europe,Sweden,,Västerås,59.6110992,16.5463679,881
North America,United States,California,Monrovia,34.1483499,-118.0014517,882
North America,United States,Wyoming,Laramie,41.311367,-105.591101,883
North America,United States,Minnesota,Sauk Centre,45.737465,-94.9525216,884
North America,United States,Maryland,Sucikaler,,,885
Africa,South Africa,,,,,886
North America,United States,Nevada,Henderson,32.182598,-95.7893178,887
North America,United States,Pennsylvania,Carbondale,37.7274692,-89.216655,888
Europe,Belgium,,Brussels,50.8465573,4.351697,889
North America,United States,California,Lodi,38.097198,-121.3878496465736,890
North America,United States,Texas,Boerne,29.7946641,-98.7319703,891
Europe,United Kingdom,,Durham,54.666667,-1.75,892
North America,United States,Georgia,Norcross,33.9412127,-84.2135309,893
North America,United States,California,Richmond,37.5385087,-77.43428,894
Europe,United Kingdom,,Cornwall,50.416667,-4.75,895
North America,United States,Massachusetts,Easthampton,42.2689274,-72.6688036,896
North America,United States,New Jersey,Holmdel Township,40.3451095,-74.1840322,897
North America,United States,Wisconsin,Green Bay,44.5126379,-88.0125794,898
North America,United States,New Mexico,Roswell,34.02332,-84.360022,899
North America,United States,Virginia,Deer Lake,40.6250914,-76.0604916,900
Europe,United Kingdom,,Carlisle,54.8948478,-2.9362311,901
North America,United States,Utah,Sandy,40.5710454,-111.8953815,902
North America,United States,California,Cupertino,37.3228934,-122.0322895,903
North America,United States,Virginia,Glen Allen,37.316934,-90.02781236389168,904
North America,United States,Connecticut,Derby,37.5455735,-97.2689331,905
North America,United States,Louisiana,Shreveport,32.4707862,-93.7559378,906
North America,United States,Rhode Island,Woonsocket,42.0028761,-71.5147839,907
North America,United States,Massachusetts,Arlington,32.7355816,-97.1071186,908
North America,United States,California,Martinez,38.0138934,-122.1338674,909
North America,Canada,,Lower Salford Township,,,910
Europe,United Kingdom,,York,53.9590555,-1.0815361,911
North America,United States,Kentucky,Highland Heights,39.0330902,-84.4521512,912
North America,United States,Georgia,Roswell,34.02332,-84.360022,913
North America,United States,New Jersey,Brick Township,40.0707244,-74.1280562,914
North America,United States,Kentucky,Lawrenceburg,38.0371378,-84.8962551,915
North America,Canada,,St. Catharines,43.1579812,-79.2441003,916
North America,United States,Kansas,Salina,38.8402805,-97.6114237,917
North America,United States,Tennessee,Germantown,38.5536601,-89.5384209,918
North America,United States,New York,Kalkaji Tehsil,,,919
North America,United States,Virginia,Fairfax County,38.8156356,-77.2836849,920
North America,United States,Montana,Troy,42.7284117,-73.6917878,921
North America,United States,Pennsylvania,Williamsport,41.2493292,-77.0027671,922
Europe,Germany,,Hannover,52.3744779,9.7385532,923
North America,United States,Connecticut,Hampton,37.0300969,-76.3452057,924
North America,United States,Ohio,Wooster,40.7980976,-81.9397733,925
North America,Canada,,Nanaimo,49.163877,-123.938122,926
North America,United States,Michigan,Jackson,32.3086744,-90.1983063,927
North America,United States,West Virginia,Charles Town,39.2891836,-77.859581,928
North America,United States,New Hampshire,Raymond,42.4681795,-92.2183956,929
North America,United States,Ohio,Kirtland,41.628937,-81.361499,930
North America,United States,Maryland,Chevy Chase,38.9813699,-77.0849245,931
North America,United States,Florida,Sunrise,26.1666888,-80.2787573,932
North America,United States,Washington,Renton,47.4799078,-122.2034496,933
North America,United States,California,Alameda,37.6090291,-121.899142,934
North America,United States,Ohio,Rocafuerte,,,935
North America,United States,Illinois,Zion,42.4461322,-87.8328505,936
North America,United States,Maine,Bangor,44.8011821,-68.7778138,937
North America,United States,Oregon,Springfield,39.7990175,-89.6439575,938
North America,United States,South Carolina,Moncks Corner,33.1960027,-80.0131374,939
North America,United States,North Dakota,Fargo,46.877229,-96.789821,940
North America,United States,Virginia,Lorton,38.700202,-77.23953597604464,941
North America,United States,Ohio,Findlay,41.0413873,-83.6503982,942
North America,United States,New Jersey,Roseland,37.278847,-94.84409135716716,943
North America,United States,Texas,College Station,30.5955289,-96.3071042,944
Europe,Germany,,Mareeba Shire,,,945
North America,United States,Georgia,McDonough,40.4376858,-90.6780272,946
North America,United States,Georgia,Pooler,32.1158983,-81.2495131,947
North America,United States,Wisconsin,Oregon,43.9792797,-120.737257,948
North America,United States,Minnesota,Metro,45.46931025,-122.61749928906988,949
North America,United States,Georgia,Franklin Springs,34.2848284,-83.1443161,950
North America,United States,Oregon,Bend,44.0581728,-121.3153096,951
North America,United States,Michigan,Harper Woods,42.4333367,-82.9238847,952
North America,United States,Maryland,Glen Burnie,39.1595439,-76.61515136556432,953
Europe,Ireland,,Remote,,,954
North America,United States,Indiana,Evansville,37.9747645,-87.5558483,955
North America,United States,Pennsylvania,Pottstown,40.2452976,-75.6496424,956
North America,United States,Connecticut,Fairfield County,39.7886111,-82.6418883,957
North America,United States,California,Belmont,40.0057737,-81.0097516,958
Europe,Belgium,,,,,959
North America,United States,Utah,Ogden,41.2230048,-111.9738429,960
North America,United States,New Jersey,Lakewood,39.7085736,-105.0846694,961
North America,United States,California,Redlands,34.0550328,-117.1827445,962
North America,United States,Georgia,Chattanooga,35.0457219,-85.3094883,963
North America,Canada,,Scotland,43.0252776,-80.3757675,964
North America,United States,Georgia,DeKalb County,41.8903447,-88.7713953,965
North America,United States,Pennsylvania,Mansfield,40.75839,-82.5154471,966
Europe,Germany,,Chemnitz,50.8322608,12.9252977,967
North America,United States,Pennsylvania,Whitemarsh Township,40.1220543,-75.2165658,968
North America,United States,Oregon,Oregon City,45.3573429,-122.6067583,969
North America,United States,Indiana,Brookston,46.8677233,-92.6038061,970
North America,United States,Texas,Marshall,41.0324537,-89.2998456,971
North America,United States,Massachusetts,Needham,31.9868295,-88.33308822099423,972
North America,United States,Rhode Island,Cranston,41.7809588,-71.4371257,973
North America,United States,Louisiana,Geismar,30.2043633,-91.0226013,974
North America,United States,Wisconsin,Arcadia,34.1362075,-118.0401497,975
North America,United States,Indiana,Carmel,39.9788017,-86.1189257,976
North America,United States,Maryland,Parañaque,14.4840579,121.0220326,977
North America,United States,Virginia,al maadi,,,978
North America,United States,Wisconsin,Oshkosh,44.0206919,-88.5408574,979
North America,United States,Colorado,Pueblo,38.2544472,-104.609141,980
Europe,Ireland,,Cathair na Gaillimhe,53.2841506,-9.037836324751463,981
North America,United States,Illinois,Paarl,,,982
North America,United States,Colorado,Colorado,38.7251776,-105.607716,983
North America,United States,California,Folsom,38.6779591,-121.1760583,984
North America,United States,California,Santa Barbara,34.4221319,-119.7026673,985
North America,United States,New Jersey,Somerville,42.3875968,-71.0994968,986
North America,Canada,,Brantford,43.1408157,-80.2631733,987
North America,United States,Wisconsin,Lancaster,40.03813,-76.3056686,988
North America,United States,Illinois,Carbondale,37.7274692,-89.216655,989
North America,United States,Colorado,Northern,37.5078766,-82.8154387,990
North America,United States,Georgia,Augusta,33.4709714,-81.9748429,991
North America,United States,Massachusetts,Taunton,41.8946107,-71.11113,992
North America,United States,Connecticut,Greenwich,41.0264862,-73.6284598,993
North America,United States,Michigan,Saint Clair Shores,42.4969652,-82.8890965,994
North America,United States,Wyoming,Wright,45.1489061,-93.9639196,995
North America,United States,Michigan,Plymouth,42.7369124,-96.2213607,996
North America,United States,Texas,Allen,40.8077797,-84.0572225,997
North America,Canada,,Castlegar,49.316171,-117.663574,998
North America,United States,Pennsylvania,North Wales,40.2109404,-75.2782317,999
North America,United States,Pennsylvania,King of Prussia,40.09476245,-75.3851333563417,1000
North America,United States,New York,Rotterdam,42.7870209,-73.9709583,1001
North America,United States,Minnesota,Bemidji,47.4785418,-94.8907869,1002
Oceania,New Zealand,,Wellington,-41.2887953,174.7772114,1003
North America,United States,New York,Rural,38.7784035,-84.0893758,1004
North America,United States,Washington,Kent,33.1665316,-100.7846477,1005
North America,United States,Nevada,Fallon,46.3291957,-104.4366483,1006
North America,United States,Arkansas,Benton,45.7162129,-94.0481042,1007
North America,United States,Florida,Lakeland,28.0394654,-81.9498042,1008
North America,United States,Oregon,Toowoomba,,,1009
North America,United States,Maryland,Towson,39.39645905,-76.61481481790992,1010
North America,United States,New Hampshire,Koronadal,,,1011
North America,United States,Alaska,Fairbanks,64.837845,-147.716675,1012
North America,United States,Georgia,Cartersville,34.1652304,-84.7997613,1013
North America,Trinidad and Tobago,,San Fernando,10.2807069,-61.4645896,1014
North America,United States,Michigan,Hillsdale County,41.8779105,-84.5984396,1015
Europe,United Kingdom,,Coventry,52.4081812,-1.510477,1016
North America,United States,Georgia,Carrollton,32.9537349,-96.8902816,1017
Europe,United Kingdom,,Stevenage,51.9016663,-0.2027155,1018
North America,Canada,,Whistler Resort Municipality,50.1171903,-122.9543022,1019
North America,United States,California,Petaluma,38.2325829,-122.636465,1020
North America,United States,Virginia,Brambleton,38.9847604,-77.5321706,1021
North America,United States,Michigan,Marquette,46.4481521,-87.6305899,1022
North America,United States,Ohio,Redland City,25.455551,-80.493467,1023
North America,United States,Washington,Federal Way,47.313494,-122.3393103,1024
North America,United States,Texas,McKinney,33.1976496,-96.6154471,1025
North America,United States,Illinois,Rural,38.7784035,-84.0893758,1026
North America,United States,New Hampshire,East Suffolk,40.9633868,-72.1847598,1027
North America,United States,California,Escondido,33.1216751,-117.0814849,1028
Europe,United Kingdom,,Reigate,51.2376557,-0.2057067,1029
Oceania,Australia,,Mackay,-21.141956,149.1865149,1030
North America,United States,New Jersey,Kenilworth,42.0894728,-87.7149295,1031
North America,United States,Washington,Kirkland,47.6859573,-122.1920249,1032
North America,United States,Minnesota,Stillwater,36.1156306,-97.0585717,1033
North America,United States,Washington,Issaquah,47.5348778,-122.0432974,1034
North America,United States,Maryland,Takoma Park,38.9778882,-77.0074765,1035
North America,United States,Maryland,Potomac Vista,38.7859471,-77.0108091,1036
North America,United States,California,Santa Monica,34.0194704,-118.4912273,1037
North America,United States,Missouri,Limbé,,,1038
North America,United States,Colorado,Trinidad,37.169397,-104.5005411,1039
Europe,Spain,,Badajoz,38.88964355,-6.980142450723942,1040
North America,United States,California,Long Beach,33.7690164,-118.191604,1041
North America,United States,Colorado,Fraser,42.1264859,-93.9685535,1042
North America,United States,California,San Mateo,37.496904,-122.3330573,1043
North America,United States,Pennsylvania,Central,65.538963,-144.70720919499604,1044
North America,United States,Texas,Corpus Christi,27.7635302,-97.4033191,1045
North America,United States,Arkansas,Osceola County,28.0443842,-81.1437541,1046
North America,United States,Illinois,Waterloo,42.498275,-92.3328743,1047
North America,Canada,,Gatineau,45.4841214,-75.6813728,1048
North America,United States,Washington,Edmonds,47.8105738,-122.3774952,1049
North America,United States,Arizona,Camp Verde,34.5636358,-111.854317,1050
North America,Canada,,Markham,43.8563707,-79.3376825,1051
Asia,India,,Bangalore,12.9767936,77.590082,1052
North America,United States,Ohio,Bowling Green,36.9903199,-86.4436018,1053
North America,United States,Indiana,Noblesville,40.0455918,-86.0085955,1054
North America,United States,Mississippi,Tupelo,34.2576067,-88.7033859,1055
North America,United States,Wisconsin,Waukesha,43.0116784,-88.2314813,1056
North America,United States,California,Dublin,37.7021521,-121.9357918,1057
Europe,Sweden,,Uppsala,59.8586126,17.6387436,1058
Europe,Germany,,Dortmund,51.5142273,7.4652789,1059
North America,United States,Texas,Lake Jackson,29.0338575,-95.4343859,1060
North America,United States,California,Paso Robles,35.6267654,-120.6912456,1061
North America,United States,California,Armenia,34.7684705,-81.2928684,1062
North America,United States,North Carolina,Hamlet,41.3785255,-86.58566832644802,1063
North America,Canada,,Vancouver Island,49.592949450000006,-125.70255696124094,1064
North America,United States,Indiana,Hammond,41.5833658,-87.500043,1065
North America,Canada,,Swift Current,50.2849138,-107.7984496,1066
North America,United States,Rhode Island,Newport,41.4899827,-71.3137707,1067
North America,United States,California,Palo Alto,37.4443293,-122.1598465,1068
North America,United States,North Carolina,Raeford,34.9809996,-79.2241998,1069
North America,Canada,,Elkford,50.0244558,-114.921826,1070
North America,United States,Texas,The Woodlands,30.1734194,-95.504686,1071
North America,United States,Connecticut,Groton,41.3501598,-72.0761998,1072
Europe,Germany,,Jena,50.9281717,11.5879359,1073
North America,Cayman Islands,,Mumbai,,,1074
Europe,United Kingdom,,Pontypool,51.7026571,-3.0327511,1075
North America,United States,California,Kingsburg,36.5138398,-119.5538929,1076
North America,United States,Florida,Riverview,31.056868,-87.05592465596104,1077
North America,United States,Indiana,Columbus,39.9622601,-83.0007065,1078
North America,United States,,New Orleans,29.9759983,-90.0782127,1079
North America,United States,Wisconsin,West Bend,43.4252776,-88.1834277,1080
North America,United States,South Carolina,Aiken,33.5723191,-81.6182086,1081
Europe,France,,Toronto,48.7447009,2.3586005,1082
North America,United States,Iowa,Brisbane City,40.73694015,-73.8614219675917,1083
North America,United States,New Jersey,Clifton,40.8584328,-74.1637553,1084
North America,Canada,,Glendale,45.8161189,-61.314011,1085
North America,United States,California,Santa Clarita,34.3916641,-118.542586,1086
North America,United States,California,Philadelphia,39.9527237,-75.1635262,1087
Europe,United Kingdom,,Surrey,51.2715316,-0.3414523511290909,1088
North America,United States,Kansas,Manhattan,40.7896239,-73.9598939,1089
North America,United States,Kansas,Leavenworth,39.345184,-94.921703,1090
Europe,United Kingdom,,Wakefield,53.6829541,-1.4967286,1091
South America,Brazil,,Curitiba,-25.4295963,-49.2712724,1092
North America,United States,New Hampshire,Keene,42.933597,-72.2784264,1093
North America,United States,Missouri,Joplin,37.08418,-94.51323,1094
North America,United States,Michigan,Allendale,32.9635006,-81.3400056,1095
North America,United States,Pennsylvania,Cherry Hill,39.9348351,-75.0307264,1096
North America,United States,Arkansas,Paragould,36.0584021,-90.4973286,1097
Europe,France,,Marseille,43.2961743,5.3699525,1098
North America,United States,California,San Bruno,37.6261715,-122.433243,1099
North America,United States,Massachusetts,Sheffield,34.7650888,-87.6986407,1100
North America,United States,Iowa,Grinnell,39.12723,-100.629031,1101
North America,United States,Vermont,Lyndon Center,42.3814245,-84.0830071,1102
North America,United States,Illinois,DeKalb,41.8903447,-88.7713953,1103
North America,United States,South Carolina,Rock Hill,34.9248667,-81.0250784,1104
North America,United States,Montana,Helena,46.5927425,-112.036277,1105
Europe,Greece,,Athens,37.9839412,23.7283052,1106
North America,United States,Pennsylvania,Nanticoke,41.2052654,-76.0049353,1107
North America,United States,Florida,Plantation,26.1275862,-80.2331036,1108
North America,United States,Ohio,Beachwood,41.464498,-81.508732,1109
North America,United States,Colorado,Greeley,40.4233142,-104.7091322,1110
North America,United States,Massachusetts,Quincy,42.2509914,-71.0037374,1111
North America,United States,New Jersey,Florham Park,40.7881643,-74.3891647,1112
North America,United States,New Jersey,Elizabeth,40.6639916,-74.2107006,1113
North America,Canada,,Moncton,46.097995,-64.80011,1114
North America,United States,Wisconsin,Brookfield,41.8228378,-87.848085,1115
North America,United States,Illinois,Central,65.538963,-144.70720919499604,1116
North America,United States,New Jersey,Mahwah,41.0887072,-74.1437552,1117
North America,United States,Kentucky,Hardin County,30.3049642,-94.403904,1118
North America,United States,Illinois,Naperville,41.7728699,-88.1479278,1119
North America,United States,Indiana,Evanston,42.0447388,-87.6930459,1120
North America,Canada,,Sherbrooke,45.403271,-71.889038,1121
Europe,Switzerland,,Lausanne,46.5218269,6.6327025,1122
North America,United States,New York,Melville,40.7934322,-73.4151214,1123
North America,United States,Wisconsin,Menomonie,44.8755183,-91.9193422,1124
North America,United States,Florida,Brevard County,28.2100203,-80.7997185,1125
North America,United States,Colorado,Centennial,39.579155,-104.8769227,1126
South America,Argentina,,Irvine,,,1127
North America,United States,Maryland,Linthicum,39.21057975,-76.66257353664076,1128
North America,United States,New York,Beacon,41.504879,-73.9696822,1129
North America,United States,California,Fremont,37.5482697,-121.988571,1130
North America,United States,Alaska,Juneau,43.9532381,-90.1218405,1131
North America,United States,Connecticut,North Haven,41.0128704,-72.3129721,1132
North America,United States,Georgia,Ball Ground,34.3382257,-84.3765714,1133
Europe,United Kingdom,,Clarendon County,54.60589915,-5.920801726459108,1134
North America,United States,Illinois,Elgin,42.03726,-88.2810994,1135
North America,United States,California,Beverly Hills,34.0696501,-118.3963062,1136
North America,United States,Wisconsin,New Berlin,29.4641219,-98.1011187,1137
North America,United States,New York,Mandaue,,,1138
North America,United States,California,San Luis,38.6319657,-90.2428756,1139
Europe,United Kingdom,,Southend-on-Sea,51.5388241,0.7128137,1140
North America,United States,Illinois,Saint Charles,38.7946252,-90.519829,1141
North America,United States,Massachusetts,Watertown,42.3709299,-71.1828321,1142
Europe,Czech Republic,,Prague,50.0874654,14.4212535,1143
North America,United States,Illinois,Garrycastle,36.2241075,-115.3017914,1144
North America,United States,Wisconsin,Fennimore,42.9836175,-90.6556019,1145
North America,Canada,,Kamloops,50.6758269,-120.339415,1146
North America,United States,New Jersey,Hawley,32.6133723,-99.8130377,1147
North America,United States,Montana,Libby,48.3883645,-115.5558612,1148
North America,United States,New Mexico,Rio Rancho,35.269381,-106.632819,1149
North America,United States,Iowa,Madison County,30.9551586,-95.9507234,1150
North America,United States,Georgia,Seattle,47.6038321,-122.330062,1151
North America,United States,Virginia,Suffolk,40.8832318,-72.8578027,1152
North America,United States,Illinois,Aurora,41.7571701,-88.3147539,1153
North America,Canada,,Winkler County,45.1927614,-78.657735,1154
North America,United States,New Jersey,Hoboken,40.7433066,-74.0323752,1155
North America,United States,New Jersey,Bridgewater,41.9903787,-70.9750426,1156
North America,United States,Massachusetts,North Chicago,42.325578,-87.8411818,1157
North America,United States,North Carolina,Clinton,38.5896187,-89.420064,1158
North America,United States,Maryland,Central,65.538963,-144.70720919499604,1159
North America,United States,South Carolina,Gaston County,35.2849659,-81.179014,1160
North America,United States,Massachusetts,Newburyport,42.8125913,-70.8772751,1161
Europe,Netherlands,,Leiden,52.1594747,4.4908843,1162
North America,United States,Wisconsin,Sheboygan,43.7128967,-87.9370433,1163
North America,United States,Minnesota,شقيب السلام,,,1164
North America,United States,Missouri,Kansas,38.27312,-98.5821872,1165
North America,United States,California,Rocklin,38.7907339,-121.2357828,1166
North America,United States,Nevada,Boulder City,35.9787638,-114.8337739,1167
North America,United States,Vermont,Morrisville,42.8986566,-75.6402204,1168
Europe,Czechia,,Prague,50.0874654,14.4212535,1169
North America,United States,New York,Garden City,37.9716898,-100.8726618,1170
North America,United States,Connecticut,Windsor,38.5471327,-122.8163802,1171
North America,United States,Florida,Fort Myers,26.640628,-81.8723084,1172
North America,United States,California,Chula Vista,32.6400541,-117.0841955,1173
North America,United States,Michigan,Novi,42.48059,-83.4754913,1174
North America,United States,California,Madera,37.1716264,-119.7737991,1175
North America,United States,Wisconsin,Ashland,40.7887367,-82.2360391,1176
North America,United States,Minnesota,Buffalo,42.8867166,-78.8783922,1177
North America,United States,Missouri,Grundy County,41.2747363,-88.4119361,1178
North America,United States,California,Morgan Hill,37.130408,-121.6544974,1179
North America,United States,California,Bakersfield,35.3738712,-119.0194639,1180
North America,United States,Florida,Florida,27.7567667,-81.4639835,1181
North America,United States,,Austin,30.2711286,-97.7436995,1182
North America,United States,Ohio,Delaware,38.6920451,-75.4013315,1183
North America,United States,Pennsylvania,Royersford,40.1842688,-75.5379639,1184
North America,United States,Georgia,Macon,32.8406946,-83.6324022,1185
North America,United States,Pennsylvania,Reading,40.335345,-75.9279495,1186
North America,United States,Massachusetts,Walpole,42.1417653,-71.2494985,1187
North America,United States,Vermont,South Burlington,44.4669941,-73.1709604,1188
North America,Canada,,Sainte-Adèle,45.953298,-74.136086,1189
North America,United States,California,Lincoln,40.8088861,-96.7077751,1190
North America,United States,Michigan,Benton Harbor,42.1167065,-86.4541894,1191
Europe,United Kingdom,,Orkney,59.01329755,-3.2312402933283337,1192
North America,United States,New York,Binghamton,42.0987125,-75.9125262,1193
North America,United States,Connecticut,Bloomfield,40.7510398,-92.4143872,1194
North America,United States,New Jersey,Vineland,39.4862777,-75.0254256,1195
North America,United States,Texas,San Marcos,29.8826436,-97.9405828,1196
North America,United States,New Jersey,Central,65.538963,-144.70720919499604,1197
North America,United States,California,Tustin,33.7458511,-117.826166,1198
North America,United States,Colorado,Arvada,39.8005505,-105.0811573,1199
North America,United States,Ohio,Avon Lake,41.510033,-82.0185895,1200
North America,Canada,,Fort McMurray,56.7291997,-111.3885221,1201
North America,United States,Virginia,Fairfax Station,38.800859,-77.3256803,1202
North America,United States,Oklahoma,Eufaula,31.8912717,-85.1454876,1203
North America,United States,Indiana,Anderson,31.7819242,-95.6258199,1204
North America,United States,Utah,Lindon,40.3432857,-111.7207608,1205
North America,Mexico,,Hermosillo,29.0948207,-110.9692202,1206
North America,United States,Texas,Missouri City,29.6185669,-95.5377215,1207
North America,United States,Idaho,Coeur d'Alene,47.6742994,-116.7811531,1208
North America,United States,New Jersey,Fort Lee,40.8509333,-73.9701382,1209
North America,United States,Maine,Wells County,40.7013353,-85.2116102,1210
North America,United States,Washington,Aberdeen,46.975371,-123.815722,1211
North America,United States,Texas,Galveston,29.299328,-94.7945882,1212
North America,United States,Indiana,Porter County,41.489113,-87.07482910718241,1213
North America,United States,Arizona,Sierra Vista,31.5545973,-110.2997756,1214
North America,United States,New Jersey,Trenta,38.172869,-85.588099,1215
Europe,United Kingdom,,Blackpool,53.8179442,-3.0509812,1216
North America,United States,Wisconsin,Port Washington,40.8257072,-73.6958069,1217
North America,United States,Florida,Coral Gables,25.72149,-80.2683838,1218
North America,United States,California,Menlo Park,37.4519671,-122.1779927,1219
North America,United States,Massachusetts,Northborough,42.3273118,-71.6406529,1220
North America,United States,Connecticut,Middletown,41.5623178,-72.6509061,1221
North America,United States,Virginia,Nottoway County,37.1489448,-78.0583926,1222
North America,United States,Colorado,Parañaque,14.4840579,121.0220326,1223
North America,Canada,,Peterborough,44.3048009,-78.3199496,1224
Europe,United Kingdom,,Inverness,57.4790124,-4.225739,1225
Europe,United Kingdom,,Ardrossan,55.6400504,-4.8148569,1226
Europe,United Kingdom,,Doncaster,53.5227681,-1.1335312,1227
North America,United States,Arkansas,El Dorado,33.2115087,-92.6650144,1228
North America,United States,Oregon,La Grande,45.3246068,-118.0878695,1229
North America,United States,Illinois,Augusta,33.4709714,-81.9748429,1230
North America,United States,Massachusetts,Clarendon County,33.6653463,-80.2277002,1231
North America,United States,Massachusetts,Plymouth,42.7369124,-96.2213607,1232
North America,United States,Michigan,Clawson,42.5333682,-83.1463166,1233
North America,United States,New York,Town of Niskayuna,42.8154056,-73.8928774,1234
North America,United States,Maine,Auburn,32.6098566,-85.4807825,1235
North America,United States,Maryland,Philadelphia,39.9527237,-75.1635262,1236
North America,United States,Illinois,Westchester,41.1763139,-73.7907554,1237
North America,United States,Illinois,Green Oaks,42.2979712,-87.91311828063661,1238
North America,United States,Arizona,Gilbert,33.3527632,-111.7890373,1239
North America,United States,Tennessee,Murfreesboro,35.8460396,-86.3921096,1240
North America,United States,Ohio,Columbia,34.0007493,-81.0343313,1241
North America,United States,Connecticut,Trumbull,41.2428742,-73.2006687,1242
North America,United States,Washington,Walla Walla,46.2055155,-118.5174284,1243
North America,United States,Kansas,Wellington,34.8559899,-100.2135865,1244
North America,United States,North Carolina,New York,40.7127281,-74.0060152,1245
North America,United States,New Jersey,West Deptford Township,39.839562,-75.19999632858708,1246
North America,United States,New Jersey,Hackensack,40.8871438,-74.0410865,1247
North America,United States,Pennsylvania,West Mifflin,40.3634026,-79.8664375,1248
North America,United States,Massachusetts,Pittsfield,42.451302,-73.260018,1249
North America,United States,Mississippi,Oxford,34.3663773,-89.5187664,1250
North America,United States,New Hampshire,Peterborough,42.8776166,-71.949383,1251
Europe,Norway,,Major County,60.1571953,24.93819061594052,1252
Europe,Latvia,,Riga,56.9493977,24.1051846,1253
North America,United States,Maryland,Cambridge,42.3750997,-71.1056157,1254
North America,Canada,,The Pas,53.8224172,-101.2405153,1255
North America,United States,Tennessee,Oak Ridge,36.0103562,-84.2696449,1256
Europe,Finland,,Uusimaa,60.2246684,25.12726308225769,1257
North America,United States,Maryland,Fort Meade,27.7522526,-81.8017491,1258
North America,United States,Alabama,Auburn,32.6098566,-85.4807825,1259
North America,United States,Oregon,Warrenton,38.7135498,-77.795367,1260
North America,United States,Missouri,Liberty,30.0856736,-94.7856262,1261
North America,United States,Maryland,Hanover,37.744783,-77.4464165,1262
North America,Canada,,Sudbury,46.49272,-80.991211,1263
North America,Canada,,Kenora District,54.0245941,-89.1618188,1264
North America,United States,Michigan,Isabella County,43.6306545,-84.8468516,1265
North America,United States,Missouri,Festus,38.2207112,-90.3959504,1266
North America,United States,Tennessee,Cleveland,41.4996562,-81.6936813,1267
North America,Canada,,Small Town,44.3307513,-79.6235251,1268
North America,United States,Indiana,Elkhart,41.6012796,-85.8590603,1269
North America,United States,Florida,Loughborough,38.5596589,-90.26685648619464,1270
Europe,Netherlands,,Enschede,52.2209855,6.8940537,1271
North America,United States,Minnesota,St. Cloud,45.5616075,-94.1642004,1272
North America,United States,Kentucky,Morehead,38.1839705,-83.4326841,1273
North America,United States,Virginia,Pearisburg,37.3265112,-80.7350712,1274
North America,United States,Minnesota,Falcon Heights,44.9898128,-93.1762507,1275
North America,United States,Maryland,Quezon City,35.130645,-118.016966,1276
North America,United States,Ohio,Rootstown,41.0990792,-81.2424901,1277
North America,United States,Pennsylvania,Hackensack,40.8871438,-74.0410865,1278
Europe,Germany,,Hamburg,53.550341,10.000654,1279
North America,United States,Iowa,Iowa,41.9216734,-93.3122705,1280
North America,United States,Virginia,Warsaw,41.2381017,-85.8530544,1281
North America,United States,Connecticut,Bristol,41.7425538,-71.0856545,1282
North America,United States,Connecticut,New Britain,41.6612104,-72.7795419,1283
North America,United States,Connecticut,Danbury,41.394817,-73.4540111,1284
North America,United States,New York,Commack,40.8428759,-73.2928943,1285
North America,United States,Georgia,Jasper,30.7485258,-94.000884,1286
Europe,United Kingdom,,Bolton,53.5782863,-2.4300367,1287
North America,United States,Minnesota,Charleston,32.7876012,-79.9402728,1288
North America,United States,Nebraska,Ainsworth,41.2889125,-91.5523838,1289
North America,United States,Washington,Clark County,39.3260541,-87.7838526,1290
North America,United States,Pennsylvania,Lower Merion Township,40.0250214,-75.27688813828287,1291
North America,United States,Hawaii,Pearl City,42.265297,-89.8259532,1292
North America,United States,Pennsylvania,Chester,39.9829308,-75.7652424,1293
North America,United States,California,Valencia,34.7325886,-106.8503919,1294
North America,United States,Pennsylvania,Phoenixville,40.1303822,-75.5149128,1295
North America,United States,New York,Potsdam,44.6697996,-74.9813349,1296
North America,United States,Texas,Huntsville,34.729847,-86.5859011,1297
North America,United States,Maine,Lewiston,46.4195913,-117.0216144,1298
North America,United States,Oklahoma,Bartlesville,36.7421089,-95.9528877,1299
North America,United States,Alabama,Gurley,34.7017558,-86.3758201,1300
North America,United States,Connecticut,Westport,41.1414855,-73.3578955,1301
North America,Puerto Rico,,San Juan,18.465299,-66.116666,1302
North America,United States,Tennessee,Greeneville,36.1631575,-82.8309861,1303
North America,United States,Alabama,Tuscaloosa,33.2095614,-87.5675258,1304
Europe,United Kingdom,,Preston,53.7593363,-2.6992717,1305
North America,United States,Mississippi,Gulfport,30.3674198,-89.0928155,1306
North America,United States,Illinois,Mumbai,19.06480145,72.86891010198264,1307
North America,United States,New Jersey,Hawthorne,33.9188589,-118.3483256,1308
North America,United States,Wisconsin,Town of Sumpter,43.36235775,-89.77826682591606,1309
North America,United States,South Carolina,Seneca County,41.1343702,-83.1194199,1310
North America,United States,Maryland,Burnie,39.1595439,-76.61515136556432,1311
North America,United States,North Carolina,Newton,30.8118989,-93.740504,1312
North America,United States,Idaho,Lewiston,46.4195913,-117.0216144,1313
North America,United States,Massachusetts,Wilbraham,42.1227601,-72.4286259,1314
North America,United States,Indiana,Decatur,39.8454163,-88.9524151,1315
Europe,United Kingdom,,Bury,53.5927543,-2.2972827,1316
Europe,Germany,,Dresden,51.0493286,13.7381437,1317
Europe,United Kingdom,,Gloucestershire,51.8333313,-2.1666674,1318
North America,United States,Ohio,Springfield,39.7990175,-89.6439575,1319
North America,United States,Washington,Pullman,46.7304268,-117.173895,1320
North America,United States,California,San Joaquin County,37.9372901,-121.2773719,1321
North America,United States,Maryland,Beltsville,39.0397735,-76.92718505662606,1322
Europe,United Kingdom,,Ramsbottom,53.648383,-2.315696,1323
North America,United States,South Carolina,Pendleton,38.6914606,-84.3689142,1324
North America,United States,Pennsylvania,South Whitehall Township,40.6100129,-75.55765394990105,1325
Europe,Germany,,Colorado Springs,,,1326
North America,United States,New Jersey,Montgomery Township,40.4564037,-74.6594773,1327
North America,United States,Delaware,Middletown,41.5623178,-72.6509061,1328
North America,United States,New Jersey,Marlton,39.9005585,-74.93389105589023,1329
North America,United States,Florida,New York,40.7127281,-74.0060152,1330
North America,United States,California,Murrieta,33.577752399999994,-117.18845420205308,1331
North America,United States,Pennsylvania,Fort Washington,38.738019,-77.00207559994112,1332
North America,United States,Rhode Island,North Kingstown,41.5514283,-71.4693875,1333
North America,United States,Tennessee,Kingsport,36.550238,-82.5594293,1334
North America,United States,Hawaii,Hilo,19.7073734,-155.08158,1335
North America,United States,Ohio,Newark,40.735657,-74.1723667,1336
North America,United States,Connecticut,Monroe,38.2722313,-90.1792484,1337
North America,United States,California,Orange County,33.7500378,-117.8704931,1338
North America,United States,Ohio,Westlake,32.991226,-97.1943701,1339
North America,United States,Massachusetts,Providence,41.8239891,-71.4128343,1340
North America,United States,Indiana,Chicago,41.8755616,-87.6244212,1341
North America,United States,Georgia,Warner Robins,32.6200973,-83.606568,1342
North America,United States,Pennsylvania,Boyertown,40.3337075,-75.6374083,1343
North America,United States,California,Milpitas,37.4332273,-121.8989248,1344
North America,United States,Illinois,Effingham County,39.0520902,-88.6029006,1345
North America,United States,New Jersey,Sussex County,36.9096897,-77.2741121,1346
North America,United States,Utah,Provo,40.2337289,-111.6587085,1347
North America,United States,Washington,Washington,38.8950368,-77.0365427,1348
North America,United States,New Hampshire,Seabrook,29.5633199,-95.019723,1349
North America,United States,Tennessee,Winchester,39.1852184,-78.1652404,1350
North America,United States,California,Laguna Hills,33.5948758,-117.6882067,1351
North America,United States,California,Burbank,34.1816482,-118.3258554,1352
North America,United States,Florida,Deerfield Beach,26.318342,-80.0996306,1353
Europe,United Kingdom,,Newcastle upon Tyne,54.9738474,-1.6131572,1354
North America,United States,Indiana,Rural,38.7784035,-84.0893758,1355
North America,United States,Idaho,عمان,37.7398294,-81.8776191,1356
Africa,Rwanda,,Kigali,-1.950851,30.061507,1357
North America,United States,Michigan,Escanaba,45.7455707,-87.0647434,1358
North America,United States,Minnesota,Rosemount,44.7391873,-93.12611,1359
North America,United States,Minnesota,West St. Paul,44.9101545,-93.0802073,1360
North America,United States,Illinois,Elmhurst,41.8994745,-87.9403418,1361
North America,United States,Massachusetts,Athol,39.764787,-98.91999455777758,1362
North America,United States,Texas,Arlington,32.7355816,-97.1071186,1363
North America,United States,California,Healdsburg,38.583011,-122.8636039292566,1364
North America,United States,California,Carson,35.3636563,-101.3353895,1365
North America,United States,New York,Rockville Centre,40.6574186,-73.6450664,1366
North America,United States,Michigan,Bay City,43.5944677,-83.8888648,1367
North America,United States,Iowa,Council Bluffs,41.258841,-95.8519484,1368
North America,United States,Indiana,Westfield,42.1390327,-72.7584859,1369
North America,United States,Virginia,Sterling,31.8151416,-101.0452671,1370
North America,United States,Georgia,Conyers,33.6676103,-84.0176904,1371
Europe,United Kingdom,,Sherborne,50.9486876,-2.5197693,1372
North America,United States,New York,Malone,44.84881,-74.295044,1373
North America,United States,Michigan,Berkley,41.9441774,-94.1137041,1374
North America,United States,Colorado,Longmont,40.1672117,-105.1019287,1375
North America,United States,Florida,Portmore,42.2810318,-71.4555618,1376
North America,United States,New York,Village of Cooperstown,42.7006303,-74.924321,1377
Europe,Netherlands,,Zwolle,52.5089759,6.0943765,1378
North America,United States,Connecticut,Westbrook,32.3582062,-101.012806,1379
North America,United States,Maryland,White Marsh,39.3836709,-76.45110327345543,1380
North America,United States,New Jersey,Montclair,40.8164458,-74.2210643,1381
North America,United States,Colorado,Mead,40.20279275,-104.97586196824028,1382
North America,United States,Idaho,Nampa,43.5737361,-116.559631,1383
North America,United States,Mississippi,Flowood,32.3092861,-90.1386811,1384
North America,United States,Alabama,Mobile,30.6867339,-88.0848929,1385
North America,United States,Texas,San Angelo,31.4649685,-100.4405094,1386
North America,United States,Virginia,Lynchburg,37.4137536,-79.1422464,1387
North America,United States,Connecticut,Rayne Township,40.707613,-79.09103816316794,1388
Asia,United Arab Emirates,,Dubai,25.07428235,55.18853865430702,1389
North America,United States,Nebraska,Bellevue,47.6144219,-122.192337,1390
North America,United States,California,Foster City,37.5600336,-122.2688522,1391
Asia,Bangladesh,,,,,1392
North America,United States,Illinois,Glendale Heights,41.919522,-88.07663650643154,1393
North America,United States,,Streamwood,42.0255827,-88.1784085,1394
North America,United States,Iowa,Waverly,42.7258451,-92.4746033,1395
Europe,Ireland,,,,,1396
North America,United States,Vermont,North Clarendon,43.5667355,-72.9653833,1397
North America,United States,Georgia,Douglasville,33.7514966,-84.7477136,1398
North America,United States,,Durham,35.996653,-78.9018053,1399
North America,United States,District of Columbia,Alexandria,38.8051095,-77.0470229,1400
